	place_id	latitude	longitude	name
0	711400	59.51211583854323	17.924805174900744	Zone:Upplands-V
1	711401	59.49963697072145	17.928319720532574	Road:Upplands-V
2	711402	59.506478541178204	17.887372204203373	Road:Upplands-V
3	711403	59.52027378816494	17.901461597669698	Road:Upplands-V
4	711500	59.52772417405197	18.067137267917662	Zone:Vallentuna
5	711700	59.47872194110589	18.293389063486114	Zone:Osteraker
6	712000	59.324155033849145	18.387438825741615	Zone:Varmdo
7	712300	59.405636954783155	17.847586177858815	Zone:Jarfalla
8	712301	59.40189693482544	17.886921720412495	Road:Jarfalla
9	712500	59.289755869759816	17.788013049427676	Zone:Ekero
10	712600	59.25137349429658	17.943650767267222	Zone:Huddinge
11	712601	59.221741067721254	17.954594318599376	Road:Huddinge-1
12	712602	59.284713713145536	17.94354531331634	Road:Huddinge-2
13	712603	59.195310311122874	18.116616336488796	Road:Huddinge-3
14	712700	59.18308232556329	17.834467410245892	Zone:Botkyrka
15	712701	59.2261848725639	17.83576490017153	Road:Botkyrka
16	712800	59.19160143420414	17.74743352693719	Zone:Salem
17	713600	59.14046431932937	18.128940355041767	Zone:Haninge
18	713601	59.138648075588165	18.114783820275253	Road:Haninge-1
19	713602	59.142434265827035	18.121774336442332	Road:Haninge-2
20	713611	59.14750107844473	18.11810779162952	Rail:Jordbro
21	713800	59.24686722617524	18.206413880996436	Zone:Tyreso
22	713900	59.498205003838535	17.65905502552938	Zone:Upplands-Bro
23	713911	59.49540153563778	17.66259797361431	Rail:Bro
24	714000	59.17710705127132	17.433470163613787	Zone:Nykvarn
25	714001	59.18288442642198	17.441583722319155	Road:Nykvarn
26	716000	59.437678807477894	18.078736254350144	Zone:Taby
27	716200	59.40243520650805	18.041169259760917	Zone:Danderyd
28	716300	59.44011422333122	17.937990025120182	Zone:Sollentuna
29	716301	59.4402791676966	17.934652254578765	Road:Sollentuna
30	718000	59.32112877295058	18.070994778664634	Zone:Stockholm
31	718001	59.293755973896445	18.01178352547552	Road:Stockholm-1
32	718002	59.27890384985775	17.910208485557064	Road:Stockholm-2
33	718004	59.362355450552414	17.951327488253785	Road:Stockholm-4
34	718012	59.292040656017676	18.023752574490572	Rail:Arsta
35	718013	59.27808057267617	18.013874716231214	Rail:Alvsjo
36	718014	59.38853331728259	17.881733121720004	Rail:Spanga
37	718015	59.3150052915032	18.022769567673905	Rail:Liljeholmen
38	718016	59.34772741145518	18.10968043113	Rail:Virtan
39	718017	59.34954760765332	18.015037782926495	Rail:Tomteboda
40	718021	59.345393176741794	18.12385925948191	Sea:Stockholm
41	718031	59.35075432937067	18.112755442104074	Ferry:Stockholm
42	718100	59.166222718649365	17.641100809633457	Zone:Sodertalje
43	718101	59.18443621186759	17.637954561146564	Road:Sodertalje
44	718111	59.17675498738595	17.646744776777187	Rail:Sodertalje
45	718112	59.08739963276088	17.55488510444119	Rail:Jarna
46	718121	59.16308909647963	17.662555885086558	Sea:Sodertalje
47	718200	59.30196127098094	18.139905362571817	Zone:Nacka
48	718221	59.321520124581966	18.170897717447595	Sea:Nacka
49	718300	59.367716025484995	17.9685181164907	Zone:Sundbyberg
50	718311	59.358494920272925	17.978430856353743	Rail:Sundbyberg
51	718400	59.35820816038144	18.003063726607845	Zone:Solna
52	718600	59.3544359758948	18.21392152884403	Zone:Lidingo
53	718700	59.40597362168536	18.34096451603139	Zone:Vaxholm
54	718800	59.755855693661005	18.69937773017441	Zone:Norrtalje
55	718811	60.05914543514337	18.592522196734272	Rail:Hallstavik
56	718821	60.062203982725315	18.591434665028483	Sea:Hallstavik
57	718831	60.09865428357848	18.815537926831915	Ferry:Grisslehalm
58	718832	59.72258178495968	19.06700204263099	Ferry:Kapellskar
59	719100	59.6209099292676	17.860657159981375	Zone:Sigtuna
60	719101	59.646742766852356	17.935812626118672	Road:Sigtuna-1
61	719141	59.64246194935706	17.934373508940663	Air:Arlanda
62	719200	58.91025494657162	17.939922861444693	Zone:Nynashamn
63	719221	58.91694332859693	17.969681167754214	Sea:Nynashamn
64	719231	58.90104986918963	17.95266917060084	Ferry:Nynashamn
65	730500	59.56317879826898	17.5034248743723	Zone:Heby
66	730521	59.548837661426184	17.538991597415887	Sea:Balsta
67	731900	60.61442221756727	17.43040262565708	Zone:Alvkarleby
68	731911	60.64453518791096	17.388821351241543	Rail:Skutskar
69	731921	60.647788458269396	17.403277742047585	Sea:Skutskar
70	733000	59.73514021312371	17.784101133569866	Zone:Knivsta
71	733100	60.035928794401215	16.95344666184849	Zone:Heby
72	736000	60.44310509405447	17.494493553401966	zone:Tierp
73	738000	59.848569048162666	17.642685766851372	Zone:Uppsala
74	738011	59.85315739065642	17.658872646064566	Rail:Uppsala-C
75	738100	59.67564130706815	17.083041278949135	Zone:Enkoping
76	738200	60.155792652270215	18.09216178006754	Zone:Osthammar
77	738221	60.17026799346404	18.479313476676026	Sea:Hargshamn
78	738222	60.407559152337974	18.210142337922818	Sea:Forsmark
79	742800	59.03551778827568	15.840010139587474	Zone:Vingaker
80	746100	59.05538570142814	17.324916178758787	Zone:Gnesta
81	748000	58.81254760236777	17.206980555327092	Zone:Nykoping
82	748011	58.745952133269284	17.000379568038046	Rail:Nykoping
83	748041	58.790939922333166	16.941688286201003	Air:Skavsta
84	748100	58.66793812697159	17.28734302143526	Zone:Oxelosund
85	748111	58.66358583860289	17.115844918897935	Rail:Oxelosund
86	748121	58.66166022258136	17.11329712857939	Sea:Oxelosund
87	748200	59.065730883140176	16.712454457664336	Zone:Flen
88	748201	59.077425872595825	16.60572958409193	Road:Flen
89	748300	58.998744068388376	16.29238058710667	Zone:Katrineholm
90	748400	59.35719642974565	16.438087618683827	Zone:Eskilstuna
91	748402	59.34426178515047	16.486249213835055	Road:Eskilstuna-2
92	748403	59.38151611864087	16.594382867359162	Road:Eskilstuna-3
93	748404	59.399064627279	16.42858929565297	Road:Eskilstuna-4
94	748411	59.37580138195058	16.49444042930535	Rail:Eskilstuna
95	748600	59.298766830261336	17.068908614337396	Zone:Strangnas
96	748800	58.91669508287127	17.506319206215043	Zone:Trosa
97	750900	58.19232397598472	14.706761997072366	Zone:Odeshog
98	751200	57.78496348915618	15.337857214384359	Zone:Ydre
99	751300	57.96090795548027	15.788369004988432	Zone:Kinda
100	756000	58.15577335263316	15.125738558305017	Zone:Boxholm
101	756011	58.18986709839813	15.048642763184638	Rail:Boxholm
102	756100	58.22719610789315	16.128503282267918	Zone:Atvidaberg
103	756200	58.74205357383354	15.805106524601241	Zone:Finspang
104	756211	58.71171520068841	15.780135180040935	Rail:Finspang
105	756300	58.255470466241995	16.622755454752827	Zone:Valdemarsvik
106	758000	58.452804110181	15.654551043815848	Zone:Linkoping
107	758001	58.414127424066514	15.665301573883653	Road:Linkoping-1
108	758002	58.41698883826033	15.667752012263255	Road:Linkoping-2
109	758012	58.37969140844125	15.713678219430342	Rail:Hjulsbro
110	758100	58.594621539362095	16.32114567706033	Zone:Norrkoping
111	758101	58.61664107987638	16.181316441337565	Road:Norrkoping-1
112	758102	58.60758464093017	16.179633987053933	Road:Norrkoping-2
113	758103	58.60806932872848	16.2238859158586	Road:Norrkoping-3
114	758104	58.582749542998506	16.21336987152204	Road:Norrkoping-4
115	758111	58.60066210160356	16.192978467797154	Rail:Norrkoping
116	758112	58.58036984228442	15.89580675473484	Rail:Skarblacka
117	758113	58.59835459595343	16.121007387707852	Rail:Fiskeby
118	758121	58.62140954914492	16.247081352348733	Sea:Norrkoping
119	758200	58.510934347515196	16.378248848014625	Zone:Soderkoping
120	758300	58.55934602509462	14.911832390587543	Zone:Motala
121	758301	58.5329462623396	15.080201415043087	Road:Motala
122	758400	58.4732836182232	14.80952289077003	Zone:Vadstena
123	758600	58.299056594216744	15.235603144613647	Zone:Mjolby
124	758601	58.38465275919143	15.09542703378171	Road:Mjolby
125	758611	58.32817456258802	15.137328918156298	Rail:Mjolby
126	758612	58.38464249240507	15.097137168184368	Rail:Skanninge
127	760400	57.83945216612054	14.82197443095107	Zone:Aneby
128	761700	57.33982221847012	13.745827709580142	Zone:Gnosjo
129	764200	57.94287396360702	13.829590854335319	Zone:Mullsjo
130	764300	57.928398385698394	14.066795166774552	Zone:Habo
131	766200	57.26817161688696	13.549270178087193	Zone:Gislaved
132	766211	57.16161678212871	13.415538719280846	Rail:Smalandsstenar
133	766212	57.20380929149309	13.287616238785153	Rail:Smalands_Burseryd
134	766500	57.4437536189009	14.08983270978607	Zone:Vaggeryd
135	766511	57.48561877612291	14.111676803210784	Rail:Vaggeryd
136	768000	57.78334846357305	14.14638640416916	Zone:Jonkoping
137	768001	57.686956167151465	14.145467172902524	Road:Jonkoping-1
138	768002	57.74967484763616	14.16162952184616	Road:Jonkoping-2
139	768004	57.67477795578586	14.16470026665264	Road:Jonkoping-4
140	768011	57.76306746445086	14.173824327405661	Rail:Jonkopings_godsbang
141	768200	57.69772365910996	14.728552589948903	Zone:Nassjo
142	768201	57.63428287037707	14.679955820521627	Road:Nassjo
143	768211	57.66010609013761	14.679242445687507	Rail:Nassjo
144	768300	57.14548210382503	14.01602081510137	Zone:Varnamo
145	768301	57.17282894425789	13.98668139184948	Road:Varnamo-1
146	768302	57.21501609267574	14.03917368185759	Road:Varnamo-2
147	768311	57.192766650375376	14.036077788813115	Rail:Varnamo
148	768312	57.254719580983476	14.124666073880665	Rail:Harle
149	768400	57.373283082152504	14.696532503780467	Zone:Savsjo
150	768500	57.40724130814097	15.02995866965062	Zone:Vetlanda
151	768511	57.41782438789298	15.085906303135504	Rail:Vetlanda
152	768600	57.643398445911814	15.024959931373857	Zone:Eksjo
153	768700	58.013540657693895	14.927225815832518	Zone:Tranas
154	776000	57.086095610074445	15.261024065986048	Zone:Uppvidinge
155	776100	56.762650520009664	15.232930884024166	Zone:Lessebo
156	776300	56.55120529039595	14.997072087266446	Zone:Tingsryd
157	776400	56.90142369092449	14.557858917574315	Zone:Alvesta
158	776411	56.89639291485724	14.538022038187563	Rail:Alvesta_rangerbangard
159	776500	56.581793548261935	14.24463126081429	Zone:Almhult
160	776511	56.53372142242506	14.125935949926008	Rail:Almhult
161	776700	56.53507755623697	13.754013819501377	Zone:Markaryd
162	776711	56.552602058317106	13.733053842054632	Rail:Stromsnasbruk
163	776713	56.489256515832594	13.611114479712226	Rail:Markaryd
164	778000	56.923208588690265	14.77724070962647	Zone:Vaxjo
165	778001	56.89765675429866	14.756708017305995	Road:Vaxjo-1
166	778002	56.92419407863902	14.73025031811389	Road:Vaxjo-2
167	778003	56.91287751244305	14.835275991374031	Road:Vaxjo-3
168	778011	56.88669987787916	14.731931891574794	Rail:Vaxjo
169	778100	56.83982921389267	13.937338767983322	Zone:Ljungby
170	782100	57.19737183319825	16.086481193866092	Zone:Hogsby
171	783400	56.42257189809914	16.03202925732076	Zone:Torsas
172	783421	56.38287536422851	16.0929841907241	Sea:Bergkvara
173	784000	56.60072724874167	16.440196416269877	Zone:Morbylanga
174	784021	56.354195451986726	16.406613156885722	Sea:Degerhamn
175	786000	57.41952481997508	15.85512020598925	Zone:Hultsfred
176	786001	57.50187061483629	15.805146867420257	Road:Hultsfred-1
177	786011	57.50353978421458	15.83308634487957	Rail:Hultsfred
178	786100	57.07665107466743	16.44835997891619	Zone:Monsteras
179	786111	57.09330430858901	16.53990291519209	Rail:Blomstermala
180	786112	56.981903482945036	16.321345452007684	Rail:Monsteras
181	786121	57.097894001526406	16.55747543819675	Sea:Monsteras
182	786200	56.62740009635334	15.632566951980486	Zone:Emmaboda
183	786211	56.62934616631342	15.535679028051279	Rail:Emmaboda
184	788000	56.68203803543471	16.327395225782	Zone:Kalmar
185	788001	56.70173560334538	16.31698233054344	Road:Kalmar
186	788012	56.66896100579418	16.325238238812172	Rail:Kalmar_S
187	788021	56.657037893593426	16.37088919391156	Sea:Kalmar
188	788100	56.772946183904516	15.870633563261844	Zone:Nybro
189	788101	56.747250942466536	15.883447437707556	Road:Nybro
190	788111	56.7441831859524	15.942890501848776	Rail:Nybro
191	788200	57.29244454101658	16.385641102481394	Zone:Oskarshamn
192	788211	57.26750918363637	16.464467545796495	Rail:Oskarshamn
193	788221	57.2666016036821	16.477531689012654	Sea:Oskarshamn
194	788222	57.40939868829439	16.675553971087172	Sea:Oskarshamsverken
195	788231	57.26564007111088	16.45366478896846	Ferry:Oskarshamn
196	788300	57.81293922892967	16.44443045762925	Zone:Vastervik
197	788321	57.752582086760114	16.676784761963333	Sea:Vastervik
198	788400	57.69784166982283	15.838682693536649	Zone:Vimmerby
199	788411	57.66303652305958	15.858227697518446	Rail:Vimmerby
200	788412	57.7423031061471	15.7918036225809	Rail:Sodra_Vi
201	788500	56.92201223399255	16.757650380781936	Zone:Borgholm
202	798000	57.60019052823422	18.17872441015461	Zone:Gotland
203	798021	57.63730023017785	18.28119011379544	Sea:Visby
204	798022	57.711144663179866	18.808741953525907	Sea:Slite
205	798023	57.84811963641615	18.78931686905571	Sea:Storungs
206	798024	57.38887144244636	18.185697553944788	Sea:Klintehamn
207	798025	57.89019112671714	19.02302364299568	Sea:Stra
208	798031	57.638014309971666	18.26751070009147	Ferry:Visby
209	806000	56.29888498972954	14.566295149355598	Zone:Olofstrsm
210	806011	56.279062335886366	14.519359547403477	Rail:Olofstrom
211	808000	56.18376341164376	15.645872684498487	Zone:Karlskrona
212	808031	56.16580199432971	15.630321387510836	Ferry:Karlskrona
213	808100	56.207803088026296	15.267117325525469	Zone:Ronneby
214	808200	56.16566522465784	14.836233809579774	Zone:Karlshamn
215	808201	56.17592016057569	14.84585446497988	Road:Karlshamn
216	808211	56.1630232182022	14.829224673697738	Rail:Karlshamn
217	808221	56.156217015413006	14.825809692848456	Sea:Karlshamn
218	808231	56.15987935437911	14.817211569729833	Ferry:Karlshamn
219	808300	56.045759712740384	14.675570563478846	Zone:Solvesborg
220	808321	56.03198538000771	14.577476653809263	Sea:Solvesborg
221	821400	55.917094657105345	13.10198932227661	Zone:Svalov
222	823000	55.653201776201676	13.201247673341959	Zone:Staffanstorp
223	823100	55.64408086852389	13.028768193339877	Zone:Burlov
224	823101	55.63742575448234	13.068030175860214	Road:Burlov
225	823300	55.47500186749803	13.021710907454194	Zone:Vellinge
226	825600	56.23170538317295	14.128292145726775	Zone:Vastra-Getinge
227	825611	56.14788568510659	14.068220169546693	Rail:Vastra-Getinge
228	825700	56.308283921408716	13.3330393714391	Zone:Orkelljunga
229	826000	56.07700298908467	12.941473966664969	Zone:Bjuv
230	826011	56.05577714887224	12.976333042472682	Rail:Billesholm
231	826012	56.08293118285218	12.912388325900215	Rail:Bjuv
232	826100	55.77882794609688	13.07012749100916	Zone:Kavlinge
233	826121	55.74123947111708	12.925416372524992	Sea_Barseback
234	826200	55.66754999071284	13.074814329986655	Zone:Lomma
235	826211	55.62950683129469	13.063971945673307	Rail:Lomma
236	826300	55.51720233041146	13.224247905266889	Zone:Svedala
237	826301	55.542285790456994	13.367032097015842	Road:Svedala
238	826341	55.539163159175644	13.348619126198077	Air:Sturup
239	826400	55.47574169459277	13.489878125009328	Zone:Skurup
240	826500	55.65159230685917	13.725801712336096	Zone:Sjobo
241	826600	55.84967147200986	13.70239627200686	Zone:Horby
242	826700	55.952694920214256	13.530302541494232	Zone:Hoor
243	827000	55.59157211752549	13.965293554918704	Zone:Tomelilla
244	827200	56.047308371799865	14.473280991155796	Zone:Bromolla
245	827211	56.06444543332536	14.461403209218727	Rail:Bromolla
246	827300	56.410844091746846	14.088059128360625	Zone:Osby
247	827301	56.36402649378036	14.016658425098045	Road:Osby
248	827311	56.389831126858176	14.04191067932976	Rail:Osby
249	827500	56.146367896193006	13.327339132727502	Zone:Perstorp
250	827501	56.141694968431594	13.381300588553346	Road:Perstorp
251	827511	56.12536087656579	13.385622778404526	Rail:Perstorp
252	827600	56.15072717775175	13.190304538196159	Zone:Klippan
253	827601	56.126456562484655	13.129499626289595	Road:Klippan
254	827700	56.13918286213963	12.989979207996733	Zone:Astorp
255	827711	56.13491771735951	12.952445678708603	Rail:Astorp
256	827800	56.38574042333499	12.777263106475097	Zone:Bastad
257	827811	56.35042639670151	12.801718836832507	Rail:Grevie
258	828000	55.59161687058069	13.013466141904322	Zone:Malmo
259	828001	55.62787064426105	13.02672289461749	Road:Malmo-1
260	828003	55.57145563833968	12.919626695420964	Road:Malmo-3
261	828006	55.51480084224714	12.993103976238526	Road:Malmo-6
262	828007	55.55550712766208	13.048268875549125	Road:Malmo-7
263	828009	55.60223698315427	13.099445827547044	Road:Malmo-9
264	828011	55.610661657599735	13.012376163534567	Rail:Malmo
265	828012	55.55319069322934	13.04841542332964	Rail:Fosieby
266	828021	55.625694433185814	13.003323626475222	Sea:Malmo
267	828031	55.62796461013116	12.994836670181497	Ferry:Malmo
268	828100	55.70129009896888	13.177395624172453	Zone:Lund
269	828101	55.68517642960159	13.18164505887208	Road:Lund-1
270	828111	55.70836537456617	13.18605941134236	Rail:Lund
271	828200	55.86009415900239	12.813614531849156	Zone:Landskrona
272	828211	55.86762847088116	12.83307471959046	Rail:Landskrona
273	828221	55.86518869584512	12.827233122478114	Sea:Landskrona
274	828300	56.05333036875757	12.744069483381207	Zone:Helsingborg
275	828301	56.016233321505936	12.711093993442441	Road:Helsingborg-1
276	828302	56.00915571769034	12.771190307922204	Road:Helsingborg-2
277	828306	56.046463798977484	12.781724432318263	Road:Helsingborg-6
278	828311	56.028184431693305	12.71581160866586	Rail:Helsingborgs_godsbang
279	828321	56.02090535339856	12.701349545081507	Sea:Helsingborg
280	828331	56.04257126637235	12.692032775524195	Ferry:Helsingborg
281	828400	56.187298738091386	12.535231655002502	Zone:Hoganas
282	828421	56.197874814477046	12.542775357100057	Sea:Hoganas
283	828500	55.822528757916	13.34956424922464	Zone:Eslov
284	828511	55.83589015652308	13.305163798624202	Rail:Eslov
285	828600	55.42187151749382	13.849971803069817	Zone:Ystad
286	828611	55.42737890633218	13.829932518458037	Rail:Ystad
287	828621	55.42392122442601	13.829213115728551	Sea:Ystad
288	828631	55.42445118502594	13.828249370154648	Ferry:Ystad
289	828700	55.35692781655565	13.209817887444512	Zone:Trelleborg
290	828711	55.37032474409748	13.161759070400448	Rail:Trelleborg
291	828721	55.36997243840383	13.144984316626319	Sea:Trelleborg
292	828731	55.367614389887194	13.156645734331352	Ferry:Trelleborg
293	829000	55.99858608256631	14.16080450342683	Zone:Kristianstad
294	829011	55.92765869044094	14.316909992938628	Rail:Arhus
295	829012	56.037933595255446	14.151749101341762	Rail:Kristianstad
296	829021	55.92796038330582	14.321097884251305	Sea:_Arhus
297	829031	55.928228752832815	14.324150086169025	Ferry:Kristianstad
298	829100	55.56922514029588	14.299388316720993	Zone:Simrishamn
299	829200	56.23594965106616	12.902133457516525	Zone:Angelholm
300	829300	56.18154951912769	13.77612506223848	Zone:Hassleholm
301	829301	56.29684110154792	13.68922100782807	Road:Hassleholm-1
302	829302	56.16161579982794	13.814438927070269	Road:Hassleholm-2
303	829311	56.16748168375852	13.76742490644832	Rail:Hassleholms_godsbanggrd
304	831500	57.00787991341911	13.189719752900704	Zone:Hylte
305	831511	56.99907636030187	13.236428583454204	Rail:Hyltebruk
306	831512	57.0038482306294	13.0990030101292	Rail:Brunngard
307	838000	56.62219590825319	12.78294203813822	Zone:Halmstad
308	838001	56.65467000679761	12.89344807883884	Road:Halmstad-1
309	838002	56.63972874505035	12.929507630359318	Road:Halmstad-2
310	838011	56.6597873586226	12.872553776509484	Rail:Halmstad
311	838021	56.65596844100613	12.853728469140584	Sea:Halmstad
312	838100	56.51808266025759	13.059367203622669	Zone:Laholm
313	838200	56.85513058024055	12.37532453412798	Zone:Falkenberg
314	838211	56.902063421676225	12.484986524274035	Rail:Falkenberg
315	838221	56.89082402450031	12.480701194524999	Sea:Falkenberg
316	838300	57.14085349200896	12.246177059391664	Zone:Varberg
317	838301	57.120102046633136	12.291998357331684	Road:Varberg-1
318	838311	57.1112503319661	12.248308986557175	Rail:Varberg
319	838312	57.27826066206231	12.362092890196424	Rail:Jarlevsby
320	838321	57.11496434788795	12.245951899352477	Sea:Varberg
321	838322	57.24975376187081	12.11286791110312	Sea:Ringhals
322	838331	57.11920417863109	12.250758898935542	Ferry:Varberg
323	838400	57.44091111171708	11.937297618701946	Zone:Kungsbacka
324	838401	57.5042598627853	12.072748485890653	Road:Kungsbacka
325	840100	57.69328659745679	12.266294531557723	Zone:Harryda
326	840101	57.67247227033263	12.301408336182462	Road:Harryda-1
327	840102	57.66094347461682	12.128881946523013	Road:Hrryda-2
328	840103	57.68676739876901	12.16207771225402	Road:Harryda-3
329	840141	57.654322121842604	12.272244996494454	Air:Landvetter
330	840200	57.689421816227835	12.132334124605805	Zone:Partille
331	840700	57.70123476210946	11.644351870076576	Zone:Ockero
332	841500	58.04074957394851	11.859173410361837	Zone:Stenungsund
333	841511	58.0821755094155	11.82225721707741	Rail:Stenungsund
334	841521	58.08613327480213	11.804782172902316	Sea:Stenungsund
335	841900	58.01746514449344	11.692345538285531	Zone:Tjorn
336	841921	58.01261231928466	11.70138038141723	Sea:Wallhamn
337	842100	58.19490798267754	11.620700357764045	Zone:Orust
338	842700	58.37181118653833	11.274585056487991	Zone:Sotenas
339	843000	58.484156538042285	11.672063929431994	Zone:Munkedal
340	843011	58.47961127810647	11.69126799288963	Rail:Munkedal
341	843500	58.70481995467427	11.414554093627736	Zone:Tanum
342	843800	58.93159955372425	11.896776719093113	Zone:Dals-Ed
343	843900	58.5998011302095	11.949488391582936	Zone:Fargelanda
344	844000	57.93133647261155	12.107648964992098	Zone:Ale
345	844001	57.960836316385276	12.120490161009261	Road:Ale
346	844011	57.85662291383214	12.014813333603248	Rail:Ale
347	844100	57.801260735620936	12.272435769904757	Zone:Lerum
348	844200	57.987639479034186	12.775149457016095	Zone:Vargarda
349	844300	57.6913067283502	12.528229818843352	Zone:Bollebygd
350	844400	58.34201709032817	12.679943489093995	Zone:Grastorp
351	844500	58.19048361637238	12.727262703897301	Zone:Essunga
352	844600	58.60641314514895	14.446186214187495	Zone:Karlsborg
353	844700	58.94331509032292	14.085420434784814	Zone:Gullspang
354	844721	58.95120895476528	14.034629143235385	Sea:Otterbacken
355	845200	57.44962115134066	13.356438487930482	Zone:Tranemo
356	845211	57.5412548956248	13.353183701581644	Rail:Limmared
357	845212	57.48427953743383	13.542529815847088	Rail:Hestra
358	846000	58.99439254700238	12.203179147211813	Zone:Bengtsfors
359	846011	58.980975264708455	12.248791141960496	Rail:Bengtsfors
360	846100	58.76657153535547	12.416984398960597	Zone:Mellerud
361	846111	58.702464375243125	12.466399003892406	Rail:Mellerud
362	846112	58.80568738598597	12.427045899535912	Rail:Sundsbruk
363	846200	58.10632741898895	12.225395956111809	Zone:Lilla_Edet
364	846211	58.12018860199482	12.131823868976936	Rail:Lilla_Edet
365	846300	57.5417731943655	12.655178598114178	Zone:Mark
366	846500	57.463129303051616	13.138924464671861	Zone:Svenljunga
367	846600	58.055090974984815	13.094846463934458	Zone:Herrljunga
368	846611	58.07954044786108	13.024890528025534	Rail:Herrljunga
369	847000	58.269934015224116	13.061328746844643	Zone:Vara
370	847001	58.25742966624003	12.96775356795881	Road:Vara
371	847100	58.537603867831756	13.418340237922525	Zone:Gotene
372	847200	58.42393317435461	14.19634471924395	Zone:Tibro
373	847201	58.415345925365806	14.132863903597718	Road:Tibro-1
374	847300	58.68354020695573	14.132768162443451	Zone:Toreboda
375	848000	57.69929123155262	11.862788666166365	Zone:Goteborg
376	848001	57.77643159405051	12.000947745692939	Road:Goteborg-1
377	848002	57.739319768287295	11.997468503327777	Road:Goteborg-2
378	848007	57.71556321097175	11.988688551123817	Road:Goteborg-7
379	848009	57.700673592067695	11.813812962217972	Road:Goteborg-9
380	848053	57.69425245971042	11.855335226596338	Road:Goteborg-12
381	848057	57.73566531675846	11.949879187454671	Road:Goteborg-16
382	848011	57.697514468069286	11.841958066834247	Rail:Goteborg
383	848012	57.78481585791899	12.008497214476773	Rail:Agnesberg
384	848013	57.7279341781035	12.029157335374077	Rail:Savenas_rangerbangnrd_(O
385	848021	57.68954470053327	11.857589633308578	Sea:Goteborg
386	848031	57.69529336102659	11.91401350664654	Ferry:Goteborg
387	848100	57.638188795848905	12.011861251172542	Zone:Molndal
388	848101	57.64917048972841	11.98983526175288	Road:Molndal-1
389	848200	57.887949518051386	11.859018207818153	Zone:Kungalv
390	848201	57.87760470436624	11.924705862048086	Road:Kungalv
391	848400	58.31455605229809	11.435731288056752	Zone:Lysekil
392	848411	58.276356183741576	11.449471153929213	Rail:Lysekil
393	848421	58.27481703975044	11.44843091305923	Sea:Lysekil
394	848422	58.35432988896823	11.437192313662964	Sea:Brofjorden
395	848500	58.31704194551694	12.051947782735585	Zone:Uddevalla
396	848501	58.369087651864476	11.975424343494353	Road:Uddevalla
397	848511	58.35061103856991	11.913390890206923	Rail:Uddevalla
398	848521	58.34506210335594	11.906542161650753	Sea:Uddevalla
399	848600	58.921752462950515	11.113927837188811	Zone:Stromstad
400	848621	58.932569155539	11.169054881650837	Sea:Stromstad
401	848631	58.932282254832444	11.169990983617657	Ferry:Stromstad
402	848700	58.3874734670339	12.350836366652258	Zone:Vanersborg
403	848701	58.34198780002579	12.252048924827674	Road:Vanersborg
404	848711	58.35757884027523	12.381457649130668	Rail:Vanersborg
405	848721	58.38029381836366	12.310760890279457	Sea:Vanersborg
406	848800	58.305876073239666	12.324676399064195	Zone:Trollhattan
407	848801	58.299710457069665	12.343576424464056	Road:Trollhattan
408	848811	58.30022547150355	12.314895734078915	Rail:Trollhattan
409	848821	58.29825826253206	12.304257632221482	Sea:Trollhattan
410	848900	57.96086593371223	12.527281787217177	Zone:Alingsas
411	848901	57.928409914635445	12.558904913521726	Road:Alingsas
412	849000	57.66334451876103	12.889440576066203	Zone:Boras
413	849001	57.72949969642143	12.923547924476242	Road:Boras-1
414	849002	57.70196582501532	12.845905988796932	Road:Boras-2
415	849003	57.68906150273772	12.821673073620428	Road:Boras-3
416	849004	57.71610887543227	12.879989298508507	Road:Boras-4
417	849100	57.82886073528226	13.4655119510782	Zone:Ulricehamn
418	849200	59.02090662002854	12.742224715840997	Zone:Amal
419	849211	59.04393894233076	12.697162413768016	Rail:Amal
420	849300	58.69714544498607	13.82148164813117	Zone:Mariestad
421	849301	58.70209818398985	13.82286764111361	Road:Mariestad
422	849311	58.701738232834686	13.823777221895604	Rail:Mariestad
423	849400	58.475433818488824	13.011090866831676	Zone:Lidkoping
424	849401	58.49398383909756	13.19638860723864	Road:Lidkoping
425	849421	58.50791400528442	13.165119435856504	Sea:Lidkoping
426	849500	58.359716330289054	13.468010135093062	Zone:Skara
427	849501	58.37056007577664	13.407014459822756	Road:Skara
428	849600	58.42896226321485	13.90511938451122	Zone:Skovde
429	849611	58.39702308922693	13.866057501227543	Rail:Skovde
430	849700	58.29831183134252	14.20209464152771	Zone:Hjo
431	849800	58.11482323937974	13.977910090598037	Zone:Tidaholm
432	849900	58.12709593873514	13.517234895491082	Zone:Falkoping
433	849911	58.18686401348462	13.575077223516248	Rail:Falkoping
434	871500	59.53209475210557	13.295242736220668	Zone:Kil
435	871511	59.505252240985925	13.316368695632834	Rail:Kil
436	873000	59.79654301333588	12.295111266717043	Zone:Eda
437	873700	60.49539396374553	12.966351013631588	Zone:Torsby
438	876000	59.56790913701661	14.35259880675405	Zone:Storfors
439	876011	59.53619887104335	14.28177164346714	Rail:Storfors
440	876100	59.32844184432576	13.450991111829294	Zone:Hammar
441	876111	59.324821831055104	13.448695413566977	Rail:Skoghall
442	876121	59.31615529808436	13.43749398262406	Sea:Skoghall
443	876200	59.8584303201031	13.458200393671607	Zone:Munkfors
444	876300	59.55300692062117	13.453075203803007	Zone:Forshaga
445	876400	59.34076159767591	13.200394749903	Zone:Grums
446	876411	59.34244605461482	13.116179071690457	Rail:Grums
447	876421	59.34274819341771	13.124673629487777	Sea:Gruvon
448	876500	59.42829163131269	11.977145005370456	Zone:Arjang
449	876600	59.809778743770316	13.03555379221535	Zone:Sunne
450	876611	59.85150053478102	13.1521760918127	Rail:Sunne
451	876612	59.796169079816096	13.115848476616957	Rail:Rottneros
452	878000	59.418483428294266	13.462388340434831	Zone:Karlstad
453	878001	59.37722745483236	13.562120491357694	Road:Karlstad-1
454	878002	59.36685308315457	13.557984553321921	Road:Karlstad-2
455	878003	59.37515325389343	13.553232174574461	Road:Karlstad-3
456	878011	59.37239310263957	13.524118003833074	Rail:Karlstad
457	878021	59.370849080396965	13.520225497097014	Sea:Gruvon
458	878100	59.27286718500838	14.230125152971326	Zone:Kristinehamn
459	878111	59.31801691155565	14.100377281389422	Rail:Kristinehamn
460	878112	59.24225553980086	14.242963380418786	Rail:Bjorneborg
461	878121	59.31470230400826	14.088642013685936	Sea:Kristinehamn
462	878200	59.720534453257564	14.17061466559239	Zone:Filipstad
463	878211	59.7692053508731	14.260748999794542	Rail:Filipstad
464	878300	60.07034005576623	13.669522842849082	Zone:Hagfors
465	878400	59.697751431034014	12.646678785248975	Zone:Arvika
466	878411	59.65358215458355	12.589440279220453	Rail:Arvika
467	878500	59.17007984725501	12.744644559772127	Zone:Saffle
468	878511	59.13936517153868	12.918412175637243	Rail:Saffle
469	881400	59.15899372629775	14.906797348551484	Zone:Lekeberg
470	886000	59.01807543349527	14.67538603069864	Zone:Laxa
471	886100	59.06990902950785	15.177550609048936	Zone:Hallsberg
472	886101	59.06498396233447	15.067313043548411	Road:Hallsberg
473	886111	59.05666642259571	15.050995608882706	Rail:Hallsberg
474	886200	59.26268628011237	14.523448626649596	Zone:Degerfors
475	886211	59.22303093015736	14.430237124453127	Rail:Degerfors
476	886300	59.783097641375505	14.503580613957617	Zone:Hellefors
477	886311	59.779007560503466	14.5168919842197	Rail:Hellefors
478	886400	59.909799557889286	15.099232186032102	Zone:Ljusnarsberg
479	888000	59.31843905641683	15.143005434253343	Zone:Orebro
480	888001	59.2588832390638	15.15748743399047	Road:Orebro-1
481	888002	59.24410299608691	15.122885176238904	Road:Orebro-2
482	888005	59.28761828902332	15.220633216767082	Road:Orebro-5
483	888007	59.214888747594614	15.149753306518797	Road:Orebro-7
484	888011	59.287825575656	15.220195745306375	Rail:Orebro-CT
485	888041	59.21271981037258	15.051140551126982	Air:Orebro_Airport
486	888100	59.142648302370816	15.179674875859957	Zone:Kumla
487	888111	59.117875028498936	15.131462662413476	Rail:Kumla
488	888200	58.808228342066684	14.940108815390127	Zone:Askersund
489	888300	59.33101337310558	14.629875243828527	Zone:Karlskoga
490	888311	59.32465586946566	14.542367234608719	Rail:Karlskoga
491	888400	59.51454029027738	15.05619087004487	Zone:Nora
492	888500	59.60371762287558	15.219866554584064	Zone:Lindesberg
493	888511	59.470218931373495	15.355816377929662	Rail:Frovi
494	888512	59.52370858277315	15.376653002609185	Rail:Sallinge
495	890400	59.8254675931811	15.680392683579683	Zone:Skinnskatteberg
496	890411	59.8332857076079	15.69307531552727	Rail:Skinnskatteberg
497	890700	59.784195863821445	16.287714565533193	Zone:Surahammar
498	890711	59.70455822190484	16.210899957615613	Rail:Surahammar
499	890712	59.875522770780464	16.079459211031114	Rail:Surahammar
500	896000	59.4417800219714	16.139953445584087	Zone:Kungsor
501	896011	59.42559697595904	16.129556700415602	Rail:Kungsor
502	896100	59.6159782835783	16.13291059201907	Zone:Hallstahammar
503	896111	59.62239352397789	16.217709415592747	Rail:Hallstahammar
504	896200	60.108187504131465	15.844688577214113	Zone:Norberg
505	898000	59.64598969562992	16.4825409767175	Zone:Vasteras
506	898001	59.60999831788144	16.61724751955208	Road:Vasteras-1
507	898002	59.593739900685335	16.512126208771768	Road:Vasteras-2
508	898011	59.59510759497401	16.50566838671074	Rail:Vasteras
509	898021	59.59075590849999	16.5208487615301	Sea:Vasteras
510	898100	59.9450873589545	16.610269397260694	Zone:Sala
511	898200	59.98966488142003	15.910852187059868	Zone:Fagersta
512	898211	59.99086588267028	15.816459477814234	Rail:Fagersta
513	898300	59.50815560631048	15.984237844559782	Zone:Koping
514	898311	59.502040657839316	16.008878892790886	Rail:Koping
515	898321	59.50150848226784	16.020751294616186	Sea:Koping
516	898400	59.426953828782636	15.84563441433751	Zone:Arboga
517	902100	60.49340410810289	14.347886551368289	Zone:Vansbro
518	902111	60.510589363319404	14.236093867347693	Rail:Vansbro
519	902300	60.739903458740955	13.550008808323245	Zone:Malung
520	902600	60.48269651425633	14.992176576659258	Zone:Gagnef
521	902900	60.70149549992309	14.959151994544975	Zone:Leksand
522	902911	60.6895466105626	15.104682282921539	Rail:Insjon
523	903100	61.00877084952524	15.195114314433225	Zone:Rattvik
524	903400	61.171943241576635	14.727288584727146	Zone:Orsa
525	903900	61.30816200408771	13.71468035159174	Zone:Alvdalen
526	903911	61.15298011965971	14.137826695092865	Rail:Alvdalen
527	906100	60.16271285910139	15.551140149010724	Zone:Smedjebacken
528	906112	60.13641517494443	15.415013084983505	Rail:Smedjebacken
529	906200	61.00473266142661	14.494428509969474	Zone:Mora
530	906211	61.00839175552799	14.554439970544662	Rail:Mora
531	908000	60.63059569722209	15.739325976928043	Zone:Falun
532	908100	60.470756834511114	15.308821546638386	Zone:Borlange
533	908101	60.485447544420396	15.473632896712882	Road:Borlange-1
534	908102	60.46628064302308	15.40461399685916	Road:Borlange-2
535	908111	60.47683790418244	15.425373989801445	Rail:Borlange
536	908200	60.35859804735961	15.67642654169328	Zone:Sater
537	908300	60.28734523210445	16.121510878759697	Zone:Hedemora
538	908400	60.16554347148502	16.329278515668967	Zone:Avesta
539	908411	60.129698237876845	16.214803860573152	Rail:Avesta_Krylbo
540	908412	60.20734761630822	16.315650478150662	Rail:Horndal
541	908413	60.305808261819706	16.415039210984194	Rail:Fors
542	908500	60.1461699866336	14.995137890035092	Zone:Ludvika
543	908511	60.14411503301646	15.17498916357579	Rail:Ludvika
544	910100	60.927822430710094	16.468857836359028	Zone:Ockelbo
545	910400	60.54257237026477	16.31536374706681	Zone:Hofors
546	910411	60.552410927297075	16.30562422419843	Rail:Hofors
547	912100	61.33324619966034	15.915222003587694	Zone:Ovanaker
548	913200	61.94710382402715	17.11202712742573	Zone:Nordanstig
549	916100	61.770268596020735	15.755726708758344	Zone:Ljusdal
550	916112	61.71624570713996	16.172719877643114	Rail:Skustra
551	918000	60.7161438610038	17.16069871693983	Zone:Gavle
552	918001	60.68410049010314	17.142615432338904	Road:Gavle-1
553	918002	60.65619997078114	17.179554264483887	Road:Gavle-2
554	918011	60.68569821013912	17.14660453649918	Rail:Gavle
555	918012	60.63783273559946	16.887599721155226	Rail:Gavle
556	918021	60.69443466852541	17.219515928039957	Sea:Gavle
557	918022	60.936015333566466	17.149188877476256	Sea:Norrsundet
558	918100	60.63055686379654	16.66371584831798	Zone:Sandviken
559	918111	60.6138720875071	16.78149727369092	Rail:Sandviken
560	918200	61.26907083777546	17.158299564534154	Zone:Soderhamn
561	918211	61.30148584810307	17.118213511553513	Rail:Sandarne
562	918212	61.27073982217182	16.87115703008177	Rail:Marmaverken
563	918213	61.186642146599034	17.17407340863051	Rail:Vallvik
564	918221	61.19097248410481	17.172864598445837	Sea:Vallvik
565	918222	61.26036418156645	17.17485925846154	Sea:Sandarne
566	918223	61.21133033269345	17.16346830386188	Sea:Ljusne
567	918300	61.30617159900091	16.34256040861531	Zone:Bollnas
568	918400	61.63988821881829	16.94248310583303	Zone:Hudiksvall
569	918401	61.75014988594696	17.107420911034794	Road:Hudiksvall
570	918411	61.72093255666871	17.10712853354091	Rail:Hudiksvall
571	918412	61.64174884779681	17.093940472905206	Rail:Iggesund
572	918421	61.62206241225301	17.126625439234896	Sea:Iggesund
573	926000	62.52655885273861	15.669122114403303	Zone:Ange
574	926011	62.52291615539331	15.653596160003058	Rail:Ange
575	926012	62.48873430675376	15.476133188876855	Rail:Alby
576	926013	62.41352166214244	15.479138360870383	Rail:Astavall
577	926200	62.49502629206128	17.32795309952092	Zone:Timra
578	926201	62.49637803819654	17.32767013473112	Road_Timra
579	926211	62.504240435631395	17.319290409677457	Rail:Timra
580	926212	62.52756806996183	17.46829522460072	Rail:Soraker
581	926221	62.476278716014534	17.342792633424185	Sea:Strand
582	926222	62.50613867345706	17.490629701305018	Sea:Soraker
583	928000	62.58151500305292	18.03899404125775	Zone:Harnosand
584	928011	62.641027827644756	17.93539523408038	Rail:Harnosand
585	928012	62.782912343191306	17.92433061383922	Rail:Veda
586	928021	62.63976142223931	17.936245781882594	Sea:Harnosand
587	928100	62.39124526732051	17.461925153076937	Zone:Sundsvall
588	928101	62.446535872869184	17.317006887058735	Road:Sundsvall
589	928111	62.335921842540095	17.36684489914066	Rail:Sundsvall
590	928112	62.37369073855917	17.103657089569477	Rail:Tuva
591	928121	62.385589587289616	17.352731881332407	Sea:Sundsvall
592	928200	62.94280749163702	17.56396632525945	Zone:Kramfors
593	928212	62.9741005226445	17.721646350457675	Rail:Vrja
594	928221	62.976068744322475	17.720645178711607	Sea:Dynas
595	928022	62.769326979731574	17.934431905142883	Sea:Utansjo
596	928300	63.198886483005076	17.380760334213488	Zone:Solleftea
597	928311	63.67389378717753	16.741604636286397	Rail:Tagsjoberg
598	928400	63.25810257803072	18.698782648130887	Zone:Ornskoldsvik
599	928401	63.30580910781059	18.74725676715024	Road:Ornskoldsvik
600	928411	63.304705563605125	18.717369165688208	Rail:Ornskoldsvik
601	928421	63.2771435033255	18.716390993092826	Sea:_Ornskoldsvik
602	928422	63.3204564909648	19.155058092705826	Sea:Husum
603	930300	63.178552396894865	16.416570204492324	Zone:Ragunda
604	930500	62.80971022164111	15.426623657849147	Zone:Bracke
605	930511	62.712012828298505	15.442888355155715	Rail:Bensjobacken
606	930512	62.75179557246688	15.415764017004232	Rail:Bracke
607	930513	62.91011196733565	15.229451348786078	Rail:Gallo
608	930514	62.98406145229717	16.088235262387382	Rail:Kalarne
609	930900	63.417505310640315	14.463420568618229	Zone:Krokom
610	930911	63.32905619993836	14.468203034500132	Rail:Krokom
611	931300	63.96205031296407	15.84569612629584	Zone:Stromsund
612	931311	64.11422288014144	16.20091894074255	Rail:Hoting
613	931312	63.62169742186141	15.203339341141874	Rail:Jamtlands_Sik
614	932100	63.39697387151822	13.603898510324779	Zone:Are
615	932111	63.30260722265251	13.828399473309664	Rail:Are
616	932600	62.69992474541572	14.39849010231446	Zone:Berg
617	936100	62.07655023265115	14.4275086932997	Zone:Harjedalen
618	936111	62.03570348076074	14.349865813494356	Rail:Sveg
619	938000	63.127384468772924	14.429321790074912	Zone:Ostersund
620	938001	63.173334949914555	14.688392748470235	Road:Ostersund
621	938011	63.169982016923484	14.637055855666539	Rail:Ostersund
622	940100	63.5245750979104	19.624922265014167	Zone:Nordmaling
623	940121	63.53654693117044	19.46021958812611	Sea:Rundvik
624	940300	63.88538868498697	19.009545934037412	Zone:Bjurholm
625	940400	64.285285117925	19.83121413100776	Zone:Vindeln
626	940900	64.15850485116744	20.947425308525393	Zone:Robertsfors
627	941700	64.92829272223507	19.49357073751677	Zone:Norsjo
628	941800	65.1887533525739	18.751123759800354	Zone:Mala
629	942100	65.13064236188661	17.098063731084263	Zone:Storuman
630	942111	65.01818055055868	17.062181491990092	Rail:Vinlidsberg
631	942112	65.09625601308043	17.111279458076645	Rail:Storuman
632	942200	65.59379478393592	17.604515996552465	Zone:Sorsele
633	942500	64.32161568518823	16.363081271441548	Zone:Dorotea
634	942511	64.25833525788536	16.40532664702613	Rail:Dorotea
635	946000	63.87810946537511	19.772631719501014	Zone:Vannas
636	946011	63.91156409894451	19.747794464796897	Rail:Vannas
637	946200	64.67257094840168	16.525261385083756	Zone:Vilhelmina
638	946211	64.62133581771415	16.65413494459824	Rail:Vilhelmina
639	946300	64.21749750606543	17.36835999466984	Zone:Asele
640	948000	63.77091744480122	20.50095373042107	Zone:Umea
641	948001	63.84408652552703	20.21763780401886	Road:Umea-1
642	948002	63.848613637791054	20.216847708775525	Road:Umea-2
643	948004	63.84913918723374	20.13703131039714	Road:Umea-4
644	948011	63.69717907633916	20.350046713524282	Rail:Holmsund
645	948012	63.84620316708374	20.233217766339276	Rail:Umea
646	948021	63.687058548198884	20.332320000662474	Sea:Umea
647	948031	63.68132587773806	20.34250888046025	Ferry:Umea
648	948100	64.50158965673324	18.60252411701413	Zone:Lycksele
649	948111	64.59447676282548	18.668656081725302	Rail:Lycksele
650	948200	64.79572704452752	21.21024146249117	Zone:Skelleftea
651	948201	64.74598295878171	21.032642541704334	Road:Skelleftea
652	948211	64.68720324318569	21.22819330576965	Rail:Skelleftea
653	948212	65.05475696265087	20.030334290200877	Rail:Jorn
654	948221	64.68370177703983	21.256650081357876	Sea:Skelleftea
655	950500	65.63833512173866	19.12001858336998	Zone:Arvidsjaur
656	950600	66.08824067339896	17.875913391496606	Zone:Arjeplog
657	951000	66.63850103791368	19.916341692376918	Zone:Jokkmokk
658	951011	66.48915208001273	20.882208293857364	Rail:Murjek
659	951300	66.2940967132335	23.063828940203642	Zone:Overkalix
660	951400	65.78523055764418	23.070987876070784	Zone:Kalix
661	951412	65.8563514873649	23.179903536166897	Rail:Kalix
662	951421	65.7914150453067	23.28175367159421	Sea:Karlsborg-Axelsvik
663	951800	66.46494354253035	23.47012935934357	Zone:Overtornea
664	952100	67.27322560529161	23.22488175332377	Zone:Pajala
665	952300	67.14194840261553	20.64978643301118	Zone:Gallivare
666	952311	67.1350976667262	20.646769256336572	Rail:Gallivare
667	956000	65.74402440122978	21.102191754573344	Zone:Alvsbyn
668	956011	65.671970250421	21.07992768748934	Rail:Alvsbyn
669	958000	65.53851478769376	22.228256423825542	Zone:Lulea
670	958001	65.63300234201814	22.043325470865785	Road:Lulea
671	958011	65.63221906471291	22.047565328530137	Rail:Gammelstad
672	958012	65.57748201366326	22.18295435462204	Rail:Lulea
673	958021	65.5472761150271	22.252461661964	Sea:Lulea
674	958100	65.30447264219761	21.630734997907783	Zone:Pitea
675	958111	65.31343519776637	21.44310675735753	Rail:Pitea
676	958112	65.28036225518028	21.486564153405517	Rail:Munksund
677	958121	65.23531483466495	21.627505653826177	Sea:Pitea
678	958200	65.88729714662122	21.683979766858023	Zone:Boden
679	958211	65.83169866868727	21.7110544990485	Rail:Boden_C
680	958300	65.77188323283328	24.090785437866668	Zone:Haparanda
681	958311	65.82938426364483	24.119735068787676	Rail:Haparanda
682	958400	67.90932937903315	20.364426161141942	Zone:Kiruna
683	958411	67.85499040545513	20.193118519983773	Rail:Kiruna_C
684	958412	67.65362400892991	21.011862733664458	Rail:Svappavaara
685	961900	60.234177394981636	25.0974609182134	Zone:Helsingfors
686	961911	60.14702794783939	24.919452411826622	Rail:Helsingfors
687	961921	60.14819608331788	24.924344714335614	Sea:Helsingfors
688	961931	60.128761371908965	25.00386378241299	Ferry:Helsingfors
689	961941	60.21283949932374	25.014444085225882	Air:Helsingfors
690	962000	60.43580731051674	22.403079916216342	Zone:Abo
691	962011	60.410043385733765	22.222915916700867	Rail:Abo
692	962021	60.43683657482647	22.211013528544363	Sea:_Abo
693	962031	60.370619843025956	22.02737338710311	Ferry:Abo
694	962041	60.499855872849494	22.237509151226178	Air:
695	962100	61.47791470635331	21.96054123436827	Zone:Pori
696	962121	61.58210637087463	21.484680442169246	Sea:Pori
697	962141	61.40411477235513	21.72820485733527	Air:Pori-Airport
698	962200	60.947164485729	24.492825891728053	Zone:Hrmeenlinna
699	962211	60.9482179543343	24.397384120357135	Rail:Hrmeenlinna
700	962300	61.42159088003123	23.860570647213756	Zone:Tampare
701	962311	61.41822912013834	23.73458536528945	Rail:Tampare
702	962341	61.40043485914757	23.667205110252812	Air:Tampare
703	962400	61.0207269770535	25.63622266920764	Zone:Lahti
704	962500	60.49913284438226	27.113666743033658	Zone:Kotka
705	962521	60.472369205251695	26.95155480382154	Sea:Kotka
706	962600	61.551774487000166	29.20422249735662	Zone:Imatra
707	962700	61.613940084487446	27.55796572169186	Zone:Mikkeli
708	962800	62.927147685539765	27.803714815458683	Zone:Kuopio
709	962900	62.54201220547071	30.043305316498426	Zone:Joensuu
710	963000	64.30273746427008	28.569236533351685	Zone:Kajaani
711	963100	62.359789667860234	25.59672966986347	Zone:Jyvaskyln
712	963200	62.9005435150476	23.255656628217363	Zone:Seinsjoki
713	963300	63.0748197616844	21.98310140936523	Zone:Vasa
714	963321	63.08296172387311	21.567762211949557	Sea:Vasa
715	963331	63.11822890290479	21.572774866399058	Ferry:Vasa
716	963341	63.11882690168632	21.89476682753878	Air:Vasa
717	963400	63.711555371952535	23.385825762142535	Zone:Kokkola
718	963500	64.97250367869076	25.873342098374742	Zone:Oulu
719	963511	65.773578918747	24.175306981226544	Rail:Torneo
720	963521	65.008326430463	25.410333921047158	Sea:Oulu
721	963600	66.53700725183285	25.963221346703417	Zone:Rovaniemi
722	963611	66.46358318537081	25.944229182722204	Rail:Rovaniemi
723	963700	60.155324878950225	19.955025069226398	Zone:Mariehamn
724	963721	60.0792467093553	19.937457327072906	Sea:Mariehamn
725	963731	60.08937141640824	19.92168513707803	Ferry:Mariehamn
726	963732	60.22510318134626	19.536837529541014	Ferry:Eckero
727	963741	60.12486019937112	19.898688678052274	Air:
728	970300	54.78199958309533	20.301621483629198	Zone:Kalingrad
729	970341	54.659716555775745	20.533883908614783	Air:Kalingrad
730	970400	68.58966041104257	33.897220846369436	Zone:Murmansk
731	970421	68.96725159836053	33.05766589475931	Sea:Murmansk
732	970500	61.57352015881646	33.44017223387625	Zone:Petrozavodsk
733	970600	59.532228781371316	30.316365146336356	Zone:St-Petersburg
734	970611	59.894481497723675	30.165633977779706	Rail:St-Petersburg
735	970621	59.88458022737621	30.190667791786336	Sea:St-Petersburg
736	970641	59.74345873182353	30.163993360277747	Air:St-Petersburg
737	970700	55.89238544775034	37.238914095717945	Zone:Moskva
738	970711	55.841825334344485	37.14987076060318	Rail:Moskva
739	970741	55.954596896341855	37.13768206608148	Air:Moskva
740	970800	55.44729238839197	54.80082791326322	Zone:Kazan
741	970900	64.65783786604239	42.06715490393553	Zone:Arkhangelsk
742	970941	64.7213887593079	41.859506607313705	Air:Arkhangelsk
743	971000	49.08558203504151	46.225653333915965	Zone:Volgograd
744	971011	48.82517636262715	45.16939364821293	Rail:Volgograd
745	971100	47.55602098371618	40.32493945406844	Zone:Rostov
746	971200	57.5742399481612	65.77631991579679	Zone:Ryssland
747	971211	57.07314090604885	60.73944438992499	Rail:Ryssland
748	965900	59.4080351982056	24.662868332811634	Zone:Tallinn
749	965911	59.37787691301637	24.781281350869868	Rail:Tallinn
750	965921	59.45297995523628	24.662844307923212	Sea:Tallinn
751	965931	59.434487277527744	24.77060815453587	Ferry:Tallinn
752	965932	59.243889315370254	24.02174993892036	Ferry:Paldiski
753	965941	59.38171177487337	24.9196156878583	Air:Tallinn
754	966000	59.219588404603925	27.170150728505174	Zone:Kohtla-Jarve
755	966100	58.38982611467894	26.788264379545893	Zone:Tortu
756	968200	57.37337679633022	21.693657962408658	Zone:Ventspils
757	968221	57.40671959434988	21.569077033912677	Sea:Ventspils
758	968222	56.517053526034026	21.001126099709712	Sea:Liepaja
759	968231	56.584131076726635	20.980625074982573	Ferry:Liepaja
760	968232	57.35854840207014	21.504762909800064	Ferry:Ventspils
761	968300	56.988876959431046	24.236670605831474	Zone:Riga
762	968311	56.98249170301662	24.01029650059943	Rail:Riga
763	968321	56.95689290838428	24.118437075635043	Sea:Riga
764	968331	57.02904682449825	24.009563283970817	Ferry:Riga
765	968341	56.96443603682275	23.873674506398967	Air:Riga
766	968400	56.161503402719624	27.078463216186353	Zone:Rezekne
767	968500	55.82840441798002	21.2207741324654	Zone:Klaipeda
768	968521	55.73325848644689	21.085729520095434	Sea:Klaipeda
769	968531	55.81340023730651	20.988744122842583	Ferry:Klaipeda
770	968600	55.092491944062225	23.767600216649868	Zone:Kaunas
771	968700	54.885729456817465	25.07322114062892	Zone:Vilnius
772	968711	54.863262860776366	25.120191309335762	Rail:Vilnius
773	968741	54.83512030074841	25.22421682535092	Air:Vilnius
774	974700	54.04058362956166	27.489776169891456	Zone:Minsk
775	974711	54.053231947247866	27.42898273930185	Rail:Minsk
776	974741	53.96593966454025	27.55064828074649	Air:Minsk
777	974500	50.723583264162585	30.25344953049013	Zone:Kiev
778	974511	50.69905815835282	30.294384521125174	Rail:Kiew
779	970200	44.93589174408087	26.293995055567528	Zone:Bukarest
780	970211	44.94344345984098	25.93978262265123	Rail:Bucuresti
781	965700	43.1503172143813	23.43105003083011	Zone:Sofia
782	965711	43.08429623199799	23.21689449474632	Rail:Sofia
783	965741	43.10708086927645	23.479969443953852	Air:Sofia
784	972800	41.532876490669985	29.216743739824025	Zone:Istanbul
785	972811	41.60008398683808	28.915057221030885	Rail:Istanbul
786	972841	41.711246012758146	28.800471735537613	Air:Istambul
787	966900	41.15392746485642	23.09146628589346	Zone:Thessaloniki
788	966911	41.04659756609057	22.978755504167523	Rail:Tessaloniki
789	966941	41.01530821275472	23.098952277722088	Air:Thessaloniki
790	967000	38.6004126071554	23.937316062695785	Zone:Aten
791	967011	38.50652741083437	23.70597480945447	Rail:Aten
792	967021	37.928690029702416	23.608609273886277	Sea:Aten
793	967041	38.46018052519419	23.81284765037573	Air:Aten
794	967100	35.899581285516476	24.698101959303727	Zone:Iraklion
795	967121	35.34562792226465	25.15975378213893	Sea:Iraklion
796	965300	41.263544751467876	19.824260842136635	Zone:Tirana
797	965600	44.1187621547551	18.496443115025887	Zone:Sarajevo
798	965611	44.15947686372058	18.409433773331102	Rail:Sarajevo
799	968000	45.174078055946474	20.590034475412583	Zone:Belgrad
800	968011	45.13811333298597	20.306948879442945	Rail:Belgrad
801	968041	45.27913472577103	20.284542714131216	Air:Belgrad
802	968100	46.03923637526535	16.24467945308234	Zone:Zagreb
803	968111	46.05222152505142	15.836744478508239	Rail:Zagreb
804	968141	45.95425609864258	16.068442852986752	Air:Zagreb
805	968800	42.00216229445318	21.417252445987394	Zone:Skopje
806	971500	46.18981971549335	14.479052321966412	Zone:Ljubljana
807	971511	46.301948107778166	14.438644202635626	Rail:Ljubljana-Zolog
808	971541	46.37198980048722	14.646998027603445	Air:Ljubljana
809	974600	47.72761737335829	19.015522796608767	Zone:Budapest
810	974611	47.745615697666324	18.984618362092846	Rail:Budapest
811	974641	47.94755513487266	19.21889054285553	Air:Budapest
812	971400	48.368400388054795	17.20643218761064	Zone:Bratislava
813	971411	48.369651308302025	17.046335259716972	Rail:Bratislava
814	972700	50.32852285791292	14.400932510680915	Zone:Prag
815	972711	50.18937217815596	14.415142828111467	Rail:Praha
816	972741	50.351305890179134	14.223396090964513	Air:Prag
817	969200	53.58088339064076	14.804247818706289	Zone:Szczecin
818	969211	53.58193611400901	14.449884280199184	Rail:Stettin
819	969221	53.90515165767003	14.263751286348876	Sea:Szczecin
820	969231	54.09457179618696	14.418812065541875	Ferry:Swinouscie
821	969300	52.67609347979596	16.89799284348312	Zone:Poznan
822	969341	52.48663655706038	16.88732079720074	Air:Poznan
823	969400	51.403191181215504	17.015339107772252	Zone:Wroclaw
824	969411	51.33183479905472	16.92693535021224	Rail:Wroclaw
825	969500	50.472113966692824	19.097737665023917	Zone:Katowice
826	969600	54.39783982219267	18.198171418122744	Zone:Gdansk
827	969621	54.52832750107634	18.54247876622066	Sea:Gdansk
828	969631	54.59691405481982	18.537285629228638	Ferry:Gdansk/Gdynia
829	969641	54.41985558400977	18.651694141027825	Air:Gdansk
830	969700	52.53746976487704	20.896086468446224	Zone:Warsawa
831	969711	52.438368674878056	20.90651953352438	Rail:Warszawa
832	969741	52.35344767599341	21.12378621325325	Air:Warszawa
833	969800	51.457158802137045	22.60977158415067	Zone:Lubin
834	969900	50.12891220823891	19.955402208859066	Zone:Krakow
835	969911	50.2470816246057	19.737928958868622	Rail:Krakow
836	960100	59.908066794305114	10.756339386188412	Zones:Oslo1
837	960121	59.888332643938504	10.75223999689511	Sea:Oslo1
838	960131	59.90057243723399	10.763740809381908	Ferry:Oslo1
839	960141	59.83278966989098	10.591945434390063	Air:Oslo
840	960200	59.74323862255161	10.207828428087158	Zones:Drammen
841	960221	59.74438881196567	10.185207492581009	Sea:Drammen
842	960211	59.7409354799768	10.203881988726728	Rail:Drammen
843	960201	59.744530862937545	10.147581291755493	Road:Drammen
844	960300	69.96595201839341	23.273162606350784	Zones:Alta
845	960321	69.9610605896377	23.195831315852676	Sea:Alta
846	960301	69.97074517868919	23.357624026449585	Road:Alta
847	960400	60.79481391824868	11.072558941797874	Zones:Hamar
848	960411	60.71825902226051	11.19513217428022	Rail:Sorli
849	960401	60.79478652341151	11.09316277006092	Road:Hamar
850	960500	60.39161379933653	5.3278072382890125	Zones:Bergen1
851	960531	60.381123572370186	5.3327742763540895	Ferry:Bergen1
852	960511	60.39045002276329	5.332907745545075	Rail:Bergen1
853	960501	60.39131221689252	5.328628646798792	Road:Bergen1
854	960541	60.22516569739702	5.355892351868927	Air:Bergen
855	960600	62.473876253703956	6.157416420480008	Zones:Alesund
856	960621	62.474585160977064	6.145878308947264	Sea:
857	960601	62.458308552967516	6.36032525428626	Road:Alesund
858	960700	68.43726369398087	17.428686866905895	Zones:Narvik
859	960721	68.41899981764084	17.419416763712672	Sea:Narvik
860	960711	68.44192530062534	17.441388166978726	Rail:Narvik
861	960701	68.42908573111575	17.435614673712532	Road:Narvik
862	960800	64.01891850385307	11.49244745450721	Zones:Steinkjer
863	960821	64.0141428373385	11.484446122289823	Sea:Steinkjer
864	960801	64.02057260030104	11.47913014753305	Road:Steinkjer
865	960900	61.11493770463108	10.467719593151834	Zones:Lillehammer
866	960911	61.11516761988866	10.461180998257447	Rail:Hove
867	960901	61.10381486275807	10.43122360865866	Road:Lillehammer
868	961000	58.94692770301272	5.745853887183147	Zones:Stavanger1
869	961001	58.94600181897193	5.7392842380787785	Road:Stavanger1
870	961041	58.74749637971423	5.714689212103759	Air:Stavanger
871	961100	61.18509300710573	6.798165881174361	Zones:Leikanger
872	961101	61.187828661547435	6.82531614977085	Road:Leikanger
873	961200	63.42772549199152	10.414014590126463	Zones:Trondheim1
874	961221	63.43582264327992	10.372355109559921	Sea:Trondheim1
875	961211	63.436655783659646	10.39812545058677	Rail:Trondheim1
876	961201	63.43456030345599	10.400068706634581	Road:Trondheim1
877	961300	59.480417870539554	8.63353211559589	Zones:Seljord
878	961400	69.63919787752965	18.90413121081416	Zones:Tromso1
879	961421	69.66626575185335	18.978858638223283	Sea:Tromso1
880	961401	69.68602963846745	18.994721881982024	Road:Tromso1
881	961500	58.148908653130455	7.99624480541553	Zones:Kristiansand1
882	961521	58.14410029893373	7.984241039377892	Sea:Kristiansand1
883	961501	58.14556590861741	8.000994959601124	Road:Kristiansand1
884	961600	59.13160154545484	10.223552483880985	Zones:Sandefjord
885	961621	59.12227426761682	10.219429692962267	Sea:Sandefjord
886	961700	59.21374918241174	10.934505956996842	Zones:Fredrikstad
887	961721	59.18813251904972	10.960683061499873	Sea:Fredrikstad
888	961711	59.208724710894195	10.952110989961648	Rail:Rolvsky
889	961800	58.46033772381529	8.76394020434949	Zones:Arendal
890	961821	58.45606596579733	8.755764282426382	Sea:Arendal
891	961801	58.47123581263046	8.717995460248325	Road:Arendal
892	990100	59.88968077120012	10.521763146162005	Zones:Berum
893	990101	59.90863119478673	10.47372371888815	Road:Berum
894	990200	60.16632160670077	10.25650445441724	Zones:Ringerike
895	990211	60.1690600848878	10.24509728316628	Rail:Honefoss
896	990201	60.214895513458174	10.244052590993022	Road:Ringerike
897	990300	70.37218276637383	31.11526050984968	Zones:Vardo
898	990321	70.38440413339498	31.034015274384608	Sea:Vardo
899	990301	70.37308091296315	31.104427456392045	Road:Vardo
900	990400	60.184416457891906	12.003832619486715	Zones:Kongsvinger
901	990411	60.187876818465156	12.00189317372222	Rail:Norsenga
902	990401	60.2020267308048	11.98399435844354	Road:Kongsvinger
903	990500	60.62917657322307	6.42168682678542	Zones:Voss
904	990501	60.63590187878672	6.430735619368689	Road:Voss
905	990600	62.85972568288779	7.171878076737418	Zones:FrsnaXXX
906	990621	62.84850195034	7.153553907015353	Sea:FrFnaXXX
907	990700	66.3112711551936	14.141453055665894	Zones:Rana
908	990721	66.31960236700766	14.123094138718198	Sea:Rana
909	990711	66.30951980728138	14.13303678846731	Rail:Rana
910	990701	66.30665058189773	14.133358651377328	Road:Rana
911	990800	63.471886088516996	10.918315315152258	Zones:Stj
912	990801	63.43178350812253	10.939885948313016	Road:Stjjrdal
913	990900	60.72366713491972	10.613750495172484	Zones:Vestre_Toten
914	990901	60.67025722750456	10.688476215690974	Road:Vestre_Toten
915	991000	58.45064817149743	6.001022735573572	Zones:Eigersund
916	961021	58.852033397774306	5.741932229235486	Sea:Stavange
917	991001	58.44874231150841	5.9996180934256795	Road:Eigersund
918	991100	58.345968312787114	6.284656061168748	Zones:Sokndal
919	991101	58.34761620569346	6.2981577915805635	Road:Sokndal
920	991121	58.328916109065325	6.259877134663445	Sea:Sokndal
921	991200	63.26609391261821	9.818764013779955	Zones:Orkdal
922	991221	63.315576060950974	9.836059837965921	Sea:Orkdal
923	991300	59.55905756506275	9.260536075339898	Zones:Notodden
924	991311	59.55884644164489	9.268021530512721	Rail:Notodden
925	991301	59.5617647866628	9.262734545326664	Road:Notodden
926	991400	69.23404468219016	17.986961691667688	Zones:Lenvik
927	991421	69.23045948092002	17.971039527473053	Sea:Lenvik
928	991401	69.25806870788111	18.075874273398266	Road:Lenvik
929	991500	58.13441056345463	7.0627576131181256	Zones:Lyngdal
930	991521	58.086508109869406	6.798027020572787	Sea:Lyngdal
931	991501	58.13916492492446	7.069539190260805	Road:Lyngdal
932	991600	59.05525797105272	10.02845812937279	Zones:Larvik
933	991621	59.04240784913983	10.019494305568932	Sea:Larvik
934	991601	59.045996123083036	10.044989230995878	Road:Larvik
935	991700	59.58429500961654	11.164582374629676	Zones:Askim
936	991701	59.579499698525495	11.181966187042201	Road:Askim
937	991800	58.331675156869316	8.233034240461091	Zones:Birkenes
938	991900	67.2842575891873	14.385271727248362	Zones:Bodk
939	991921	67.28266158443762	14.366980511569377	Sea:Bodo
940	991911	67.2864323853082	14.39101823035833	Rail:Bod
941	991901	67.28483799204206	14.396396331445263	Road:Bod
942	963800	55.86200654460641	12.290881105063326	Zone:Ballerup
943	963900	55.713211501483755	12.519169533354784	Zone:Kapenhamn
944	963901	55.71255485315204	12.608370101843532	Road_DK
945	963911	55.70192550099841	12.588805316280222	Rail:Kabenhavn
946	963921	55.70039068613203	12.593038061931649	Sea:Kopenhamn
947	964000	56.02804724536221	12.558555373081587	Zone:Helsingor
948	964011	56.02967403735519	12.604841694727805	Rail:Helsingor
949	964021	56.0325443305558	12.613813868142373	Sea_DK
950	964031	56.03311397166598	12.615383991928724	Ferry_DK:Helsingor
951	964100	55.6503322960249	12.102829471820227	Zone:Roskilde
952	964200	55.333548570293935	11.225042737197924	Zone:Slagelse
953	964201	55.35026653136807	11.147061856291096	Road_DK
954	964231	55.35294129955034	11.146328234379402	Ferry_DK:Slagelse
955	964300	55.22478083330237	11.757631336119168	Zone:Naestved
956	964400	55.101961934660835	14.695797158819511	Zone:Ranne
957	964401	55.09540742741502	14.736745515706463	Road_DK
958	964421	55.09646257527311	14.688787245706248	Sea_DK:Ronne
959	964431	55.09744219544502	14.685332066952151	Ferry_DK:Ronne
960	964500	55.37579285128303	10.429821955261332	Zone:Odense
961	964501	55.373739059079575	10.497987487933974	Road_DK
962	964511	55.401512873695815	10.381793206164145	Rail:Odense
963	964521	55.42756252570967	10.395040915768876	Sea_DK
964	964600	54.87087929974473	9.339589134016457	Zone:Tinglev
965	964601	54.83202650054819	9.342236961051691	Road_DK
966	964611	54.83694579140433	9.356986035306145	Rail
967	964700	55.45813036894854	8.511548784807475	Zone:Esbjerg
968	964701	55.46334706714152	8.432377351346505	Road_DK
969	964711	55.467889598224325	8.461584164516898	Rail:Esbjerg
970	964721	55.460469841100426	8.445855976323317	Sea_DK:Esbjerg
971	964731	55.45660757333098	8.420980414579383	Ferry_DK:Esbjerg
972	964800	55.64370671630878	9.538651063079026	Zone:Kolding
973	964801	55.73205477217515	9.5601014984439	Road_DK
974	964900	56.04863879856837	8.834115445382322	Zone:Danmark
975	965000	56.17987094330876	10.224048599426949	Zone:Drhus
976	965001	56.21069415138856	10.21617302525636	Road_DK
977	965011	56.15360237215842	10.184760066732855	Rail:Drhus
978	965021	56.142567376036354	10.222562023131431	Sea_DK:_rhus
979	965031	56.1606209293321	10.22644280617629	Ferry_DK
980	965100	56.43890987851362	9.3606306063246	Zone:Viborg
981	965101	56.454182968206986	9.371852883990616	Road_DK
982	965200	56.970525173545724	9.886864279783055	Zone:Vlborg
983	965201	57.00430044384316	9.881065615481855	Road_DK
984	977500	55.57333211650052	9.68379140262969	Zone:Danmark
985	977501	55.54716333522407	9.640981653446032	Road_DK
986	977511	55.56176524728675	9.751416055832289	Rail
987	977521	55.56061822744087	9.74775851622824	Sea_DK
988	977531	55.555638194728026	9.73032515064958	Ferry_DK
989	977600	55.6915757138631	11.10237160952246	Zone:Danmark
990	977621	55.67700389070242	11.093796321578413	Sea_DK
991	977631	55.67790034371787	11.093706854996855	Ferry_DK
992	977700	55.449053788809174	9.431679201811967	Zone:Danmark
993	977701	55.461705448876046	9.482326153967113	Road_DK
994	977711	55.49089461333022	9.480929426125746	Rail
995	977721	55.48983156853609	9.483297853495488	Sea_DK
996	977800	56.14788000752434	8.994638788901774	Zone:Danmark
997	977801	56.129413077867	9.025900706750358	Road_DK
998	977900	55.45724313874552	11.81752052323682	Zone:Danmark
999	977901	55.4301509282791	11.799148037068576	Road_DK
1000	978000	55.47441872875105	9.051686582349088	Zone:Danmark
1001	978001	55.48201920542909	9.028500864119216	Road_DK
1002	978100	55.252967228259934	9.33708460923121	Zone:Danmark
1003	978101	55.246701924439066	9.394227554767657	Road_DK
1004	978200	55.737570797553055	8.96865558542084	Zone:Danmark
1005	978201	55.73072766783656	9.116660958816771	Road_DK
1006	978300	55.950355254554104	9.757846806332735	Zone:Danmark
1007	978301	55.886842106632834	9.785808974748592	Road_DK
1008	978400	55.45609364260814	12.07010989733992	Zone:Danmark
1009	978411	55.46382450433544	12.188839745877583	Rail
1010	978421	55.45268925809119	12.193270379926556	Sea_DK
1011	978431	55.455564869936076	12.193224231223859	Ferry_DK
1012	978500	56.631716140804926	9.733374658656661	Zone:Danmark
1013	978501	56.63654085882982	9.777281557647644	Road_DK
1014	978600	55.079673714487875	8.866259154944105	Zone:Danmark
1015	978601	54.93153066679594	8.86044918479503	Road_DK
1016	978700	55.760381116563416	9.307918853477135	Zone:Danmark
1017	978800	55.83028032914487	9.898120505189082	Zone:Danmark
1018	978821	55.858347678686584	9.867714829657217	Sea_DK
1019	978900	56.498819766839325	9.560993576082568	Zone:Danmark
1020	978901	56.39595109010449	9.668534423596611	Road_DK
1021	979000	56.32319914691084	8.39233281608611	Zone:Danmark
1022	979100	56.461157962297285	10.635220078990693	Zone:Danmark
1023	979121	56.40778738647656	10.921821589399345	Sea_DK
1024	979132	56.40933296976627	10.925062541029826	Ferry_DK:Grens
1025	979200	56.422022330171984	10.055851598677886	Zone:Danmark
1026	979201	56.41449465047912	10.070139915446811	Road_DK
1027	979221	56.45946904489542	10.051788533374568	Sea_DK
1028	979300	55.96482150367589	8.572787219724116	Zone:Danmark
1029	979301	55.9613909724091	8.488901431572557	Road_DK
1030	979400	55.79367583035914	9.743028045400642	Zone:Danmark
1031	979401	55.74750111752624	9.587784827862999	Road_DK
1032	979500	57.04110861314448	9.876816715945532	Zone:Danmark
1033	979501	57.048677758645724	10.048952827521108	Road_DK
1034	979521	57.05041722065503	9.917468683064897	Sea_DK
1035	979541	57.084185333227474	9.880614029686967	Air:elborg
1036	979600	55.659228668489654	12.23908286945348	Zone:Danmark
1037	979601	55.63433377426005	12.251322981835678	Road_DK
1038	979700	56.573247832178524	9.136410945806727	Zone:Danmark
1039	979701	56.56610795372428	9.03772139095724	Road_DK
1040	979721	56.566310600079866	9.056932147530846	Sea_DK
1041	979800	56.82172898211546	9.38037458345281	Zone:Danmark
1042	979900	57.04992675406481	8.795237951801251	Zone:Danmark
1043	979901	56.96703458925401	8.738513618617738	Road_DK
1044	979921	57.11953555907321	8.597139265633261	Sea_DK
1045	980000	55.64348067089557	12.415663919396918	Zone:Danmark
1046	980001	55.66163152204056	12.394113767074005	Road_DK
1047	980100	56.3113271942979	9.930818077313587	Zone:Danmark
1048	980101	56.29218225095078	9.995328521595782	Road_DK
1049	980200	56.10271661176262	9.5000596353398	Zone:Danmark
1050	980300	57.05495317327568	10.233524194989078	Zone:Danmark
1051	980301	57.04388829770016	10.057514447691952	Road_DK
1052	980400	56.07972588416868	9.876706868884003	Zone:Danmark
1053	980401	56.067435550821884	9.986919683113696	Road_DK
1054	980500	56.10992142586499	8.309465964579342	Zone:Danmark
1055	980600	55.67956514212367	8.615213627094668	Zone:Danmark
1056	980700	56.63580884557994	10.006632164552212	Zone:Danmark
1057	980800	55.45528574383836	10.615478225621096	Zone:Danmark
1058	980900	56.799585364952236	8.730615242993805	Zone:Danmark
1059	981000	55.95990307663557	9.225939481005687	Zone:Danmark
1060	981100	55.28503192949624	11.362635801041627	Zone:Danmark
1061	981121	55.20279395121401	11.268887342994432	Sea_DK
1062	981200	54.81173821938542	11.934672557855338	Zone:Danmark
1063	981201	54.900559766420585	11.898903977976815	Road_DK
1064	981300	55.43244575692258	11.360621385893749	Zone:Danmark
1065	981301	55.3868716140631	11.361180197591235	Road_DK
1066	981400	56.66402476624186	8.942096584381527	Zone:Danmark
1067	981500	57.45775333454826	9.989311518960262	Zone:Danmark
1068	981501	57.57531779514463	9.984012576533392	Road_DK
1069	981521	57.59238774927248	9.967582440418846	Sea_DK
1070	981531	57.59328254824699	9.96745855152439	Ferry_DK
1071	981600	55.397668910196415	8.736390435097052	Zone:Danmark
1072	981700	54.986019990986506	9.202652706917336	Zone:Danmark
1073	981800	56.149017076895944	9.235095805495478	Zone:Danmark
1074	981801	56.1187836844435	9.140043249133692	Road_DK
1075	981900	55.297109991395274	10.068331906173087	Zone:Danmark
1076	981921	55.27023107659981	9.900676176838514	Sea_DK
1077	982000	55.73308355206771	12.360040816474626	Zone:Danmark
1078	982001	55.73091438773351	12.342823948641502	Road_DK
1079	982100	56.24660875493392	9.52578158400405	Zone:Danmark
1080	982101	56.20223612402735	9.576686006897514	Road_DK
1081	982200	55.45238461828237	9.88616951395619	Zone:Danmark
1082	982221	55.4974312080271	9.722427000082218	Sea_DK:Kolding
1083	982300	56.7421792876643	10.025081284136684	Zone:Danmark
1084	982400	56.46380934875797	8.557865060599982	Zone:Danmark
1085	982401	56.47402319419689	8.582816357564306	Road_DK
1086	982500	55.83429721858197	12.488782903009932	Zone:Danmark
1087	982600	57.30100395802763	10.387805594981259	Zone:Danmark
1088	982700	55.02374446342402	10.584662787021779	Zone:Danmark
1089	982800	55.01354497610506	9.829405310499936	Zone:Danmark
1090	982900	55.81862873444395	12.013206398446338	Zone:Danmark
1091	983000	55.615098263627516	12.634954688410721	Zone:Danmark
1092	983041	55.6244237134135	12.643129736284815	Air:KDpenhamn
1093	983100	55.51916049026212	10.245103700113805	Zone:Danmark
1094	983200	56.411004725919064	8.791331590279045	Zone:Danmark
1095	983201	56.379950294140684	8.635877172104394	Road_DK
1096	983300	56.49538057480547	8.284448852131087	Zone:Danmark
1097	983400	56.82411038440294	9.82334856433526	Zone:Danmark
1098	983401	56.78520024027584	9.696416895212831	Road_DK
1099	983500	55.6535732554037	11.602192162147274	Zone:Danmark
1100	983501	55.64935133233023	11.43146317519763	Road_DK
1101	983600	55.28835766591565	12.059646350342392	Zone:Danmark
1102	983700	54.91481179200404	9.916303297458663	Zone:Danmark
1103	983721	54.90929366154764	9.807355871911671	Sea_DK
1104	983800	54.845652177818884	11.20408918256291	Zone:Danmark
1105	983900	55.60410000089093	11.279599961960303	Zone:Danmark
1106	983901	55.65888464137879	11.416120896498292	Road_DK
1107	984000	57.427723319735115	10.431544829215307	Zone:Danmark
1108	984001	57.39147673121829	10.511526697795489	Road_DK
1109	984021	57.434584477781954	10.545098611668305	Sea_DK:Frederikshavn
1110	984031	57.43255853698727	10.548847298379426	Ferry_DK:Fredrikshavn
1111	984100	55.23532073492528	10.46959068498454	Zone:Danmark
1112	984200	57.27308092466518	9.985914411011557	Zone:Danmark
1113	984300	56.34836966404358	10.465251827801524	Zone:Danmark
1114	984301	56.37985820300413	10.49247042088772	Road_DK
1115	984341	56.305968405947674	10.59115685185672	Air:
1116	984400	56.85644834921888	8.441423830995912	Zone:Danmark
1117	984401	56.70539076820291	8.220219681469642	Road_DK
1118	984421	56.699967765992824	8.21825150468418	Sea_DK
1119	984500	56.246426260232425	8.82423899242623	Zone:Danmark
1120	984600	55.29454120492459	10.701353699365361	Zone:Danmark
1121	984601	55.31371303096124	10.80241963333873	Road_DK
1122	984621	55.30850797529828	10.79492826449246	Sea_DK
1123	984700	57.09907551406957	9.358848874657728	Zone:Danmark
1124	984800	57.20307895105675	9.708107948692042	Zone:Danmark
1125	984801	57.20516243212244	9.682935812163764	Road_DK
1126	984900	55.67503135985722	8.255731277614602	Zone:Danmark
1127	985000	55.15515298525955	10.26141413418933	Zone:Danmark
1128	985100	55.718603001408844	11.75248010327601	Zone:Danmark
1129	985200	55.12201041161186	10.603003061991899	Zone:Danmark
1130	985300	54.92561783988985	9.642733115992772	Zone:Danmark
1131	985400	54.74505318708408	11.430058943868476	Zone:Danmark
1132	985421	54.65429723585035	11.351018460093469	Sea_DK
1133	985431	54.65351440678911	11.348917315002284	Ferry_DK:Rodby_Danmark
1134	985500	55.96945426691108	11.990206689778159	Zone:Danmark
1135	985521	55.962817933748944	12.009313230655366	Sea_DK
1136	985600	56.93676434957559	10.15697712491458	Zone:Danmark
1137	985700	55.332381878796454	12.307916139884574	Zone:Danmark
1138	985800	56.41657921214627	9.198944433286291	Zone:Danmark
1139	985841	56.29828566077578	9.124650223097007	Air:Viborg
1140	985900	56.057373388732785	10.149030421397654	Zone:Danmark
1141	985901	56.087312288374136	10.044520621668934	Road_DK
1142	986000	54.7567985122437	11.695053918982877	Zone:Danmark
1143	986001	54.79339278810262	11.61674743334159	Road_DK
1144	986021	54.871010254105094	11.74557824183204	Sea_DK
1145	986031	54.57397031472786	11.925938651404287	Ferry_DK
1146	986100	57.603424460228396	10.429926200049279	Zone:Danmark
1147	986101	57.725817987456985	10.586126101736818	Road_DK
1148	986121	57.71901350047064	10.592166462159962	Sea_DK
1149	986200	55.06272658437945	11.972680956636042	Zone:Danmark
1150	986300	57.475131986615345	10.17614463854581	Zone:Danmark
1151	986400	55.938970881139824	10.146720759986238	Zone:Danmark
1152	986401	55.98334365282053	10.142596058235437	Road_DK
1153	986500	56.586329576809895	10.184374097124254	Zone:Danmark
1154	986600	57.18002398313354	10.255497235903759	Zone:Danmark
1155	986700	55.48592412518056	11.558537896381509	Zone:Danmark
1156	986800	55.097577251571046	14.979471331119775	Zone:Danmark
1157	986900	56.51837822336936	9.91339436121098	Zone:Danmark
1158	987000	55.29568058686113	11.64311717052238	Zone:Danmark
1159	987100	55.95048567238192	12.443618041200153	Zone:Danmark
1160	987200	55.81072715753561	11.531019160123654	Zone:Danmark
1161	987300	56.230640081361834	10.627926319495455	Zone:Danmark
1162	987400	56.02844103114496	12.149682629990398	Zone:Danmark
1163	987500	54.919673973483015	10.776926927909948	Zone:Danmark
1164	987600	56.1701357375686	10.02109187578663	Zone:Danmark
1165	987601	56.16007412403763	10.066252543282237	Road_DK
1166	987700	56.067316400135375	12.295289678410358	Zone:Danmark
1167	987800	54.966934718006215	12.298988289425306	Zone:Danmark
1168	987900	55.85721248426445	10.5886303718818	Zone:Danmark
1169	972900	53.82337035628577	10.790682071732407	Zone:Lubeck
1170	972911	53.950265445534235	10.706061570294906	Rail:Lubeck
1171	972921	53.91149129567354	10.748900023603241	Sea:Lubeck
1172	972931	53.983717517879704	10.843641024186214	Ferry:Travemunde
1173	972932	54.39718645756875	10.366492814496038	Ferry:Kiel
1174	972933	54.50528651035314	11.22245987562709	Ferry:Puttgarden_Germany
1175	973000	53.645806890565716	10.351613332889656	Zone:Hamburg
1176	973011	53.615072847066344	10.054621546583682	Rail:Hamburg-Billwerder
1177	973021	53.518064243378255	9.936555630434068	Sea:Hamburg
1178	973041	53.656321827230435	10.228069919796594	Air:Hamburg
1179	973100	52.48786530764108	9.939223806080127	Zone:Hannover
1180	973111	52.45659528584955	9.797561394417027	Rail:Hannover-Linden
1181	973141	52.46695245784901	9.652804902493886	Air:Hannover
1182	973200	53.257027792838116	8.912443771463943	Zone:Bremen
1183	973211	53.144364583671624	8.852523562251339	Rail:Bremen
1184	973221	53.51934149108007	8.612319414853362	Sea:Bremerhaven
1185	973241	53.110867856379386	8.69301550450002	Air:Bremen
1186	973300	51.682528371086434	7.180656383660226	Zone:Dusseldorf
1187	973311	51.511057233520624	7.274056013357613	Rail:Duisburg
1188	973341	51.57935327341944	6.990789458940414	Air:Essen
1189	973400	50.3824104274336	8.632011319603903	Zone:Frankfurt
1190	973411	50.269323911172336	8.80464018340141	Rail:Frankfurt/Main_Ost
1191	973441	50.21895797403827	8.359178206394398	Air:Frankfurt
1192	973500	49.65902415747736	8.426327035496657	Zone:Kaiserslautern
1193	973600	48.6723032853772	9.30260828576782	Zone:Stuttgart
1194	973611	48.87154630182874	9.220310802302071	Rail:Stuttgart
1195	973641	48.886248370886335	9.356750611040527	Air:Stuttgart
1196	973700	48.151677944195306	11.320071096978944	Zone:Munchen
1197	973711	48.30335563284496	11.520791584393542	Rail:Munchen
1198	973741	48.327163941512936	11.721443568295733	Air:Munchen
1199	973800	49.26518550231701	7.276717395071056	Zone:Saarbrucken
1200	973900	52.71216504709149	13.57092035571704	Zone:Berlin
1201	973911	52.650323501881545	13.30595446980745	Rail:Seddin(Berlin)
1202	973941	52.70174810978082	13.402831956157806	Air:Berlin
1203	974000	53.987151351689164	12.046709878172448	Zone:Rostock
1204	974011	54.12914930567581	12.103053868824206	Rail:Rostock
1205	974021	54.0911939399218	12.128796490350362	Sea:Rostock
1206	974031	54.25368431191642	12.18292502123164	Ferry:Rostock
1207	974032	54.630998253751905	13.656283339266874	Ferry:Sassnitz
1208	974100	51.97133935063038	13.70700030654969	Zone:Cottbus
1209	974111	51.237734819414214	13.640862859480306	Rail:Dresden
1210	974141	51.593779062688704	13.732331634045474	Air:Dresden
1211	974200	52.136831982973334	11.447623209139687	Zone:Magdeburg
1212	974300	51.19003059586165	10.005839343234156	Zone:Erfurt
1213	974311	51.048251576568695	9.717160464711682	Rail:Erfurt
1214	974400	51.75823362089927	12.07401934624157	Zone:Leipzig
1215	974411	51.621632968670156	12.064036620182412	Rail:Engelsdorf(Leipzig)
1216	974441	51.63332571045889	12.311724188241547	Air:Leipzig
1217	974800	47.95195139816139	13.098263733655674	Zone:Salzberg
1218	974811	47.999332293912836	12.964872767862731	Rail:Salzburg
1219	974841	48.62971215154217	14.141048342578994	Air:Linz
1220	974900	48.52364394589318	16.226488615740177	Zone:Wien
1221	974911	48.40999045275308	16.310373819959487	Rail:Wien
1222	974941	48.44737352576867	16.505126475114746	Air:Wien
1223	974942	47.26761027933776	15.6203976804883	Air:Graz
1224	971300	47.217612984483765	7.3382975038646	Zone:Bern
1225	971311	47.16178071622919	7.458333191626076	Rail:Basel
1226	971341	47.64070291006106	8.75324674434367	Air:Zurich
1227	971342	46.39545663634358	6.118630442803329	Air:Geneve
1228	967500	45.77876738488319	9.235418141515238	Zone:Milano
1229	967511	45.66984093450595	9.152402939959646	Rail:Milano-Smistamento
1230	967541	45.6981315148822	9.221641862475716	Air:Milano
1231	967542	44.641821016281924	8.981587409073756	Air:Genoa
1232	967543	45.30570716947718	7.748810203028981	Air:Turino
1233	967600	44.07103631463224	11.35927496994887	Zone:Firenze
1234	967641	44.768883270344524	11.470200089138327	Air:Bologna
1235	967642	45.753071523987416	11.94580956284028	Air:Venezia
1236	967700	42.380090325714015	12.47380606741437	Zone:Rom
1237	967711	42.15679722838726	12.363615656254726	Rail:Roma-Smistamento
1238	967721	42.096964296764234	11.793202486709752	Sea:Rom
1239	967741	42.1981689633196	12.22031744909194	Air:Rom
1240	967800	41.220003935196615	14.147953073473607	Zone:Napoli
1241	967811	41.18287535768485	14.110041751198857	Rail:Napoli
1242	967841	41.18057860220851	14.27019643630324	Air:Napoli
1243	967900	39.362065358533876	8.690165112762001	Zone:Cagliari
1244	967921	39.1966818843223	9.119389651423734	Sea:Cagliari
1245	968900	36.20961767445545	14.635771750332527	Zone:Valetta
1246	968921	35.901153759476465	14.523272798928586	Sea:Valetta
1247	968941	35.94516863579745	14.91784009755015	Air:Malta
1248	966200	47.32963641631422	-1.3329151293165915	Zone:Nantes
1249	966221	48.652812561078335	-2.017657249204941	Sea:St-Malo
1250	966300	49.125349626877366	2.500279372619364	Zone:Paris
1251	966311	48.962080082088185	2.5937520912322385	Rail:Paris
1252	966321	48.850322578978485	2.346065138312373	Sea:Paris
1253	966322	49.49997701751538	0.09879003482161847	Sea:Le-Havre
1254	966341	49.05976350548179	2.743526931063542	Air:Paris
1255	966400	48.84159304527719	6.09839458739239	Zone:Nancy
1256	966500	45.8830302945557	4.699280857222703	Zone:Lyon
1257	966511	45.91728841691481	4.893261548898277	Rail:Lyon
1258	966541	43.70532925250923	1.2789422075561785	Air:Toulouse
1259	966542	45.98910865527995	4.970630362968774	Air:Lyon
1260	966600	43.62450490895204	5.449111123053293	Zone:Marseille
1261	966611	43.5387075843492	5.3742267366178496	Rail:Marseille
1262	966621	43.28883593650424	5.360517592559121	Sea:Marseille
1263	966641	43.818763952153134	6.647552839199137	Air:Nice
1264	966642	43.57932835472507	5.229683495217426	Air:Marseille
1265	966700	37.816580488508244	-11.040188875421334	Zone:Frankrike
1266	966721	38.00072568266508	-11.045620129506359	Sea:Fr_Islands
1267	965400	51.24920652366377	3.4838011925454904	Zone:Brugge
1268	965421	51.33643042404903	3.2049152349392767	Sea:Zeebrugge
1269	965500	50.84362876332363	4.331488085216785	Zone:Bryssel
1270	965511	50.88744352245004	4.541953850781801	Rail:Bryssel
1271	965521	50.835524379070534	4.333642617403807	Sea:Bryssel
1272	965522	51.05279759163424	3.7192414529578004	Sea:Ghent
1273	965523	51.219872706575046	4.410326627083994	Sea:Antwerpen
1274	965541	50.94833056126732	4.58457337399263	Air:Bryssel
1275	965542	50.70898604327753	5.651590049494975	Air:Liege
1276	965543	49.72488885422138	6.0108645883191345	Air:Luxemburg
1277	969000	53.19146489370027	6.796181833866918	Zone:Groningen
1278	969021	53.33739353001168	6.934904277280164	Sea:Delfzijl
1279	969100	52.474846808351735	5.0062838533516745	Zone:Amsterdam
1280	969111	52.37179204426821	5.079788975199376	Rail:Kijfhoek(Rotterdam)
1281	969121	52.39879961108835	4.820439536809377	Sea:Amsterdam
1282	969122	51.91669837066327	4.504581696399001	Sea:Rotterdam
1283	969131	52.452878019128875	5.244580696683576	Ferry:Amsterdam
1284	969141	52.33118919504172	4.843352908395535	Air:Amsterdam
1285	972100	54.590775273865646	-5.7781075408307885	Zone:Belfast
1286	972121	54.671429067885285	-5.817043623725561	Sea:Belfast
1287	972141	54.52462862738278	-5.863228270967927	Air:Belfast
1288	972200	55.58294108151282	-3.9021488851124437	Zone:Glasgow
1289	972241	55.64898881708692	-3.0211267864673323	Air:Edinburgh
1290	972242	55.658113256400405	-3.9291771617996605	Air:Glasgow
1291	972243	56.90564364746562	-1.9907737914847157	Air:Aberdeen
1292	972300	53.25297043799357	-2.340986261654603	Zone:Manchester
1293	972311	53.2842019544393	-2.2895229980089895	Rail:Manchester
1294	972321	53.73314808510299	-0.31582308481077864	Sea:Hull
1295	972341	53.22928227062739	-2.2934321028577607	Air:Manchester
1296	972342	54.69497591432704	-1.4820787307925962	Air:Newcastle
1297	972400	51.52649310534283	-2.840323905805183	Zone:Cardiff
1298	972500	52.38153102276089	-1.5868953337446063	Zone:Birmingham
1299	972541	52.384032286576456	-1.5594689990566486	Air:Birmingham
1300	972600	51.32499349598123	0.21498626100728496	Zone:London
1301	972611	51.47163950984976	0.10151661397409348	Rail:London
1302	972621	51.44298805594216	0.4115734127540141	Sea:London/Chatham
1303	972641	51.35075501929865	0.04206758309390413	Air:London
1304	967300	53.270764547202866	-5.931616343964944	Zone:Dublin
1305	967321	53.34071401688818	-6.025649412876575	Sea:Dublin
1306	967341	53.236787948461185	-5.754482722059964	Air:Dublin
1307	966800	61.98611595598224	-7.584567268045328	Zone:Streymoy
1308	966821	62.00724175367455	-6.685754804039051	Sea:Streymoy
1309	967400	64.58597175897442	-21.80793753499608	Zone:Reykjavik
1310	967421	64.1398426964869	-22.449783917249544	Sea:Reykjavik
1311	967200	61.26231025674365	-27.84668425318203	Zone:Godthvb
1312	967221	61.320980841722054	-25.5482269341145	Sea:Godthhb
1313	971600	43.58229671745442	-2.757389373191631	Zone:Bilbao
1314	971611	43.5198624094128	-2.5773316527323638	Rail:Bilbao
1315	971621	43.25649347950012	-2.9600662481155355	Sea:Bilbao
1316	971622	43.38093013923225	-8.40098813294264	Sea:La_Coruna
1317	971641	43.52195205242329	-2.6613655426694485	Air:Bilbao
1318	971700	41.00279146305477	-3.496859472704045	Zone:Madrid
1319	971711	40.73200413411287	-3.58823380901399	Rail:Madrid
1320	971741	40.792909704016985	-3.535884375182422	Air:Madrid
1321	971742	37.21510461775344	-4.636448767247593	Air:Malaga
1322	971800	41.47905389685387	1.0805847929541856	Zone:Barcelona
1323	971811	41.392631322752614	1.2425921317469606	Rail:Barcelona-Can-Tunis
1324	971821	41.34620298509548	2.203199887914	Sea:Barcelona
1325	971841	41.5112372564837	1.517815566206307	Air:Barcelona
1326	971900	38.00570351485688	-6.029198316070939	Zone:Sevilla
1327	971921	39.4274505413239	-0.3002426128800376	Sea:Valencia
1328	971941	39.808829472479076	-0.4696818912579247	Air:Valencia
1329	971942	37.95409234419886	-5.980793160323244	Air:Malaga
1330	972000	38.079158402028426	-11.158976766694492	Zone:Spanien
1331	972021	38.27743312909556	-11.056157550259954	Sea:Span_Islands
1332	970000	39.35534524689046	-8.835966990722516	Zone:Lissabon
1333	970011	39.29428338046057	-8.987434166006606	Rail:Lissabon
1334	970021	38.71206816648699	-9.126613031809992	Sea:Lissabon
1335	970041	39.34554507448701	-9.00571495698317	Air:Lissabon
1336	970042	37.66948794165609	-7.931518447542917	Air:Faro
1337	970100	38.28610890568792	-11.257155864013248	Zone:Portugal
1338	970121	38.46927117019005	-11.093842369710165	Sea:Port_Islands
1339	965800	35.48859804437774	33.092752362893556	Zone:Larnaca
1340	965821	34.90565332471506	33.6754520193261	Sea:Larnaca
1341	965841	35.37182672154326	32.88429345267175	Air:Larnaca
1342	975000	46.40865396613221	-15.82519193560571	Zone:Nordamerika_Kanada
1343	975100	46.48522250296424	-15.874625006186672	Zone:Nordamerika_USA
1344	975200	46.86737591389134	-16.125306330735675	Zone:Mellan-Syd_Amerika_Brazil
1345	975300	46.714575493428555	-16.02446373984143	Zone:Mellan-Syd_Amerika_Mexiko
1346	975400	46.79097548399666	-16.0747023258147	Zone:Mellan-Syd_Amerika_Others
1347	975500	47.780056992067514	-16.748082926376647	Zone:Framre_Asien_Iran
1348	975600	47.476540522114455	-16.537019556202193	Zone:Framre_Asien_Others
1349	975700	47.70426521790474	-16.695007796055954	Zone:Bortre_Asien_Indien
1350	975800	47.63257890598168	-16.919209129272208	Zone:Bortre_Asien_Indonesian
1351	975900	48.15839938316294	-17.016777566069468	Zone:Bortre_Asien_Japan
1352	976000	47.93157913654551	-16.854935795433985	Zone:Bortre_Asien_Kina
1353	976100	47.85580291154799	-16.801374436990724	Zone:Bortre_Asien_Hong_Kong
1354	976200	47.56050152948093	-17.14266137323852	Zone:Bortre_Asien_Malaysia
1355	976300	47.48810783923909	-17.365139019484424	Zone:Bortre_Asien_Pakistan
1356	976400	47.70818411013822	-16.97247583850291	Zone:Bortre_Asien_Singapore
1357	976500	48.08283939621197	-16.962610219234307	Zone:Bortre_Asien_Sydkorea
1358	976600	48.00723256400888	-16.90866330251983	Zone:Bortre_Asien_Taiwan
1359	976700	47.78374302664065	-17.025958947043318	Zone:Bortre_Asien_Thailand
1360	976800	47.71129104452479	-17.249786601707935	Zone:Bortre_Asien_Others
1361	976900	46.41650696647658	-16.095926958654786	Zone:Afrika_Egypten
1362	977000	46.943656251984955	-16.1760657823645	Zone:Afrika_Sydafrika
1363	977100	46.64535276691328	-16.246226580317195	Zone:Afrika_Other_countries
1364	977200	47.63852212630435	-17.47263155804167	Zone:Oceanien_Australien
1365	977300	47.56548090871855	-17.69466010653975	Zone:Oceanien_Nya_Zeeland
1366	977400	48.01021570311006	-17.187769769119726	Zone:Oceanien_Other_countries
1367	961631	59.41022938188786	10.430432437185567	Ferry:Horten
1368	961731	59.433515585636336	10.68079195591616	Ferry:Moss
1369	960521	60.38388978272016	5.31623141111953	Sea:Bergen1
1370	960811	63.70773284310837	11.126076334527582	Rail:Skienkjer
1371	961011	58.94929818460061	5.743639586165063	Rail:Stavanger
1372	961511	58.14795979188142	7.9986478960889595	Rail:Kristiansand
1373	960111	59.88900549673456	10.753585405154858	Rail:Olso
1374	719111	59.56931449771674	17.889373814622978	Rail:Rosersberg
1375	748311	58.99429820996815	16.287862759809276	Rail:KatrineholmCombi
1376	958500	67.63469042809629	21.07454667111573	Zone:KirunaTwo
1377	993000	65.79456378940614	24.164980953300056	Zone:Torneaa
1378	993021	65.76058942491115	24.128162147300678	Sea:Torneaa
