place_id	latitude	longitude	name
712700	59.18308232556329	17.834467410245892	Botkyrka
898100	59.94508735895449	16.610269397260694	Sala
827500	56.146367896193	13.327339132727502	Perstorp
966621	43.45332566780812	5.39556671487883	Marseille
908400	60.16554347148502	16.329278515668967	Avesta
962700	61.613940084487446	27.557965721691865	Mikkeli.Finland
968232	57.35854840207014	21.50476290980006	Ventspils
828421	56.19959633084766	12.543471371713254	Höganäs
838400	57.44091111171706	11.937297618701946	Kungsbacka
948212	64.75223880397432	20.95834712475716	Skellefte
711500	59.527724174051954	18.067137267917666	Vallentuna
713602	59.14243426582704	18.12177433644233	COCA-COLA
886200	59.26268628011236	14.523448626649598	Degerfors
963721	59.9700220349984	19.786749339411028	Mariehamn
964711	55.467889598224325	8.461584164516896	Esbjerg
969122	51.95613975282237	4.6111481627703	Rotterdam
972641	51.35075501929865	0.0420675830939041	London
960821	64.02071705445502	11.47767806404172	Steinkjer
963000	64.30273746427008	28.56923653335168	Kajaani.Finland
714000	59.17710705127132	17.433470163613787	Nykvarn
973411	50.269323911172336	8.80464018340141	Frankfurt/Main
902300	60.73990345874096	13.550008808323248	Malung
828007	55.55550712766208	13.048268875549123	SCHENKER
971100	47.55602098371618	40.32493945406844	Rostov.Ryssland
829012	56.023697402110486	14.102981340290782	Kristianstad
928421	63.2734066244302	18.711519725557707	Örnsköldsvik
981300	55.432445756922576	11.36062138589375	nan
983800	54.84565217781888	11.204089182562912	nan
942112	65.10229112258565	17.128838235997407	Storuman
712500	59.289755869759816	17.788013049427676	Ekerö
966821	60.36501134920094	-8.379349962039704	Streymoy
974700	54.04058362956165	27.489776169891456	Minsk.Vitryssla
768201	57.63428287037707	14.679955820521627	JYSK
918021	60.690458038992006	17.21557815654579	Gävle
908000	60.63059569722209	15.739325976928043	Falun
962021	60.36231299476423	22.143865779115803	Åbo
829021	55.92833911096994	14.32461230238216	Åhus
978100	55.252967228259934	9.337084609231212	nan
848500	58.31704194551693	12.051947782735583	Uddevalla
968941	35.945168635797444	14.91784009755015	Malta
778003	56.91287751244305	14.835275991374033	DUVEMÅLA
979800	56.82172898211546	9.380374583452806	nan
898001	59.60999831788144	16.61724751955208	SCHENKER
848013	57.72315304563428	12.005527957840588	missing transfe
788101	56.747250942466536	15.883447437707556	SCHENKER
926201	62.49637803819654	17.32767013473112	SCHENKER
748201	59.07742587259581	16.60572958409193	STATOIL
958300	65.77188323283328	24.090785437866668	Haparanda
718001	59.29375597389643	18.011783525475515	DHL
928111	62.32188505721162	17.354697615772025	Sundsvall
928221	62.96918905697925	17.728096487310484	Utansj
974411	51.62163296867016	12.064036620182412	Leipzig-Wahren
990900	60.72366713491972	10.613750495172484	Vestre_Toten
984400	56.85644834921889	8.441423830995912	nan
962100	61.47791470635331	21.96054123436827	Pori.Finland
973021	53.636716811889976	10.071010544326322	Hamburg
971511	46.30194810777815	14.438644202635626	Ljubljana
982600	57.30100395802763	10.38780559498126	nan
972700	50.32852285791292	14.400932510680915	Prag.Tjeckien
842700	58.37181118653833	11.274585056487991	Sotenäs
980800	55.45528574383836	10.615478225621096	nan
828211	55.873558068212894	12.822769096542334	Landskrona
984100	55.23532073492527	10.469590684984542	nan
967500	45.77876738488319	9.235418141515238	Milano.Italien
768500	57.40724130814097	15.02995866965062	Vetlanda
838011	56.67527339509558	12.910907214810202	Halmstad
969400	51.4031911812155	17.015339107772252	Wroclaw.Polen
844100	57.801260735620936	12.272435769904757	Lerum
718000	59.321128772950566	18.070994778664637	Stockholm
876421	59.34592965787306	13.1148253474158	missing transfe
808321	56.03071261631495	14.573157918998394	Sölvesborg
758300	58.55934602509462	14.911832390587543	Motala
952311	67.11886440096569	20.57176951366112	Gällivare
828731	55.37048220683645	13.142451230190456	Trelleborg
967421	63.251999315348094	-19.714867521361665	Reykjavik
964700	55.45813036894853	8.511548784807475	Esbjerg.Danmark
928401	63.3058091078106	18.74725676715024	missing transfe
973200	53.25702779283812	8.912443771463941	Bremen.Tyskland
808221	56.162994285636856	14.85588932920911	Karlshamn
936100	62.07655023265115	14.4275086932997	Härjedalen
969800	51.45715880213704	22.60977158415067	Lubin.Polen
886101	59.06498396233447	15.067313043548411	AHLSELL
788221	57.26928360759007	16.471005622264983	Oskarshamn
826700	55.952694920214256	13.530302541494232	Höör
718012	59.29204065601768	18.02375257449057	Stockholm-Årsta
966700	37.81658048850825	-11.04018887542133	Frankrike
981900	55.29710999139528	10.068331906173087	nan
828006	55.51480084224714	12.993103976238526	DHL
843900	58.599801130209485	11.949488391582936	Färgelanda
838331	57.11920417863107	12.250758898935544	Varberg
849300	58.69714544498607	13.82148164813117	Mariestad
786001	57.50187061483629	15.805146867420255	SCHENKER
848800	58.30587607323967	12.324676399064195	Trollhättan
970500	61.57352015881646	33.44017223387625	Petrozavodsk.Ry
966200	47.32963641631422	-1.3329151293165915	Nantes.Frankrik
967400	63.39979141625613	-19.728000123420927	Reykjavik.Islan
845200	57.449621151340665	13.356438487930482	Tranemo
788411	57.65021606813614	15.841102468407136	Vimmerby
776711	56.55380740346746	13.722650297496129	Jönköping
849611	58.40087427160992	13.85671099506066	Skövde
823000	55.65320177620166	13.20124767334196	Staffanstorp
776400	56.90142369092448	14.557858917574316	Alvesta
846100	58.76657153535547	12.4169843989606	Mellerud
898200	59.98966488142003	15.910852187059868	Fagersta
967300	53.27076454720286	-5.931616343964944	Dublin.Irland
984500	56.246426260232425	8.82423899242623	nan
844200	57.987639479034186	12.775149457016097	Vårgårda
716301	59.4402791676966	17.934652254578765	BONNIERFÖRLAGEN
980001	55.661631522040544	12.394113767074003	nan
985900	56.05737338873279	10.149030421397654	nan
828700	55.35692781655564	13.209817887444512	Trelleborg
896200	60.108187504131465	15.844688577214113	Norberg
972611	51.47163950984976	0.1015166139740934	London
908300	60.28734523210445	16.121510878759697	Hedemora
888400	59.51454029027738	15.05619087004487	Nora
979500	57.04110861314448	9.876816715945532	nan
890700	59.784195863821445	16.287714565533193	Surahammar
961931	60.128761371908965	25.003863782412985	Helsingfors
748400	59.35719642974566	16.438087618683827	Eskilstuna
985400	54.74505318708408	11.430058943868476	nan
986700	55.48592412518056	11.55853789638151	nan
888001	59.2588832390638	15.15748743399047	SCHENKER
808000	56.18376341164375	15.645872684498483	Karlskrona
972800	41.53287649066999	29.216743739824025	Istanbul.Turkie
986300	57.47513198661535	10.17614463854581	nan
963800	55.8620065446064	12.290881105063326	Ballerup.Danmar
983000	55.61509826362752	12.63495468841072	nan
982800	55.01354497610506	9.829405310499936	nan
918022	60.93367527570392	17.14386302834536	Norrsundet
888500	59.60371762287557	15.219866554584064	Lindesberg
716300	59.44011422333122	17.937990025120182	Sollentuna
840700	57.70123476210946	11.644351870076576	Öckerö
986900	56.51837822336936	9.91339436121098	nan
977600	55.691575713863095	11.102371609522462	nan
829302	56.161615799827935	13.814438927070269	DHL
960100	59.90806679430512	10.756339386188412	Oslo1
991421	69.23275356230558	17.99412026061656	Lenvik
748402	59.344261785150486	16.486249213835055	SKAN
979200	56.42202233017197	10.055851598677888	nan
828306	56.04646379897749	12.781724432318263	ALEX
951300	66.2940967132335	23.06382894020364	Överkalix
986400	55.938970881139824	10.146720759986238	nan
991500	58.13441056345463	7.062757613118129	Lyngdal
968300	56.988876959431046	24.236670605831478	Riga.Lettland
847001	58.25742966624003	12.967753567958807	AKTIEBOLAGET
974800	47.95195139816139	13.098263733655676	Salzberg.Österr
973911	52.650323501881545	13.30595446980745	Grossbeeren
969711	52.438368674878056	20.90651953352438	Warszawa
972932	54.39718645756875	10.366492814496038	Kiel
876600	59.80977874377032	13.03555379221535	Sunne
967011	38.506527410834366	23.70597480945447	Aten
961521	58.14410029893373	7.984241039377892	Kristiansand1
890400	59.8254675931811	15.680392683579685	Skinnskatteberg
973600	48.6723032853772	9.30260828576782	Stuttgart.Tyskl
768301	57.17282894425789	13.98668139184948	SCHENKER
828500	55.822528757916	13.34956424922464	Eslöv
964100	55.6503322960249	12.102829471820227	Roskilde.Danmar
758100	58.594621539362095	16.32114567706033	Norrköping
946200	64.6725709484017	16.525261385083756	Vilhelmina
979600	55.65922866848965	12.23908286945348	nan
876200	59.8584303201031	13.458200393671609	Munkfors
788222	57.41589082322228	16.66702569716523	Oskarshamn
963911	55.70192550099841	12.588805316280222	Höje
982221	55.52653797388314	9.773571229611594	Kolding
968400	56.16150340271962	27.078463216186357	Rezekne.Lettlan
928121	62.383052278059694	17.354080482177945	Sundsvall
990721	66.3352306960192	14.158720458337807	Rana
991800	58.33167515686932	8.233034240461093	Birkenes
888100	59.1426483023708	15.179674875859956	Kumla
713611	59.1249306425593	18.109691586008346	Jordbro
963300	63.0748197616844	21.98310140936523	Vasa.Finland
985700	55.33238187879645	12.307916139884574	nan
961021	58.88334334895365	5.765085979045929	Stavanger
973800	49.265185502317	7.27671739507106	Saarbrucken.Tys
849100	57.82886073528226	13.4655119510782	Ulricehamn
931300	63.96205031296408	15.84569612629584	Strömsund
766200	57.26817161688695	13.549270178087191	Gislaved
829300	56.18154951912769	13.77612506223848	Hässleholm
991200	63.2660939126182	9.818764013779957	Orkdal
788012	56.65176229949801	16.30153823701095	Kalmar
970000	39.35534524689047	-8.835966990722515	Lissabon.Portug
966221	48.75270740792801	-1.6004701722664971	St
990321	70.38440413339498	31.034015274384608	Vardø
784000	56.60072724874168	16.440196416269877	Mörbylånga
846500	57.463129303051616	13.13892446467186	Svenljunga
848057	57.73566531675846	11.949879187454671	IMAJE
849421	58.509131116962045	13.14977803365544	Lidköping
979132	56.40933296976626	10.925062541029826	Gren
948031	63.68222744588271	20.371400880137205	Umeå
985800	56.41657921214626	9.198944433286291	nan
849900	58.12709593873514	13.517234895491082	Falköping
828300	56.05333036875757	12.744069483381208	Helsingborg
768002	57.74967484763616	14.16162952184616	TNT
768312	57.25471958098347	14.124666073880665	Hörle
843500	58.70481995467427	11.414554093627736	Tanum
972811	41.60008398683809	28.915057221030885	missing transfe
806000	56.29888498972954	14.5662951493556	Olofström
848053	57.69425245971042	11.85533522659634	MAERSK
984600	55.29454120492459	10.701353699365365	nan
974021	54.21786501604807	12.120622968076708	Rostock
841500	58.040749573948496	11.859173410361835	Stenungsund
827000	55.59157211752549	13.965293554918704	Tomelilla
808231	56.15974796200802	14.846080234130904	Karlshamn
848600	58.92175246295052	11.113927837188813	Strömstad
962031	60.37061984302594	22.027373387103108	Åbo
972100	54.300535635361946	-5.313123774602658	Belfast.Storbri
968521	55.78098705271113	20.97400855006161	Klaipeda
964300	55.224780833302376	11.757631336119168	Naestved.Danmar
718600	59.3544359758948	18.21392152884403	Lidingö
960111	59.88900549673456	10.753585405154858	Oslo
970200	44.93589174408087	26.293995055567528	Bukarest.Rumäni
961921	60.13374472138061	25.05347038251879	Helsingfors
896100	59.615978283578286	16.13291059201907	Hallstahammar
718300	59.367716025485	17.9685181164907	Sundbyberg
718100	59.16622271864935	17.641100809633453	Södertälje
776511	56.55901400155346	14.180167330768306	Älmhult
960811	63.70773284310837	11.12607633452758	Missing transfer
828100	55.70129009896889	13.177395624172451	Lund
970121	38.46927117019004	-11.093842369710162	Port
838322	57.24925568780539	12.11075133320714	Varberg
984300	56.34836966404358	10.465251827801524	nan
848007	57.71556321097175	11.988688551123817	UNITRANS
960400	60.79481391824868	11.072558941797874	Hamar
962900	62.54201220547071	30.043305316498422	Joensuu.Finland
848901	57.928409914635445	12.558904913521726	LUNA
971300	47.21761298448376	7.3382975038646	Bern.Schweiz
960711	68.44192530062534	17.441388166978726	Narvik
973500	49.65902415747736	8.426327035496657	Kaiserslautern.
990411	60.18787681846516	12.00189317372222	Norsenga
712601	59.22174106772125	17.954594318599373	CATERPILLAR
983100	55.51916049026211	10.245103700113807	nan
930300	63.17855239689487	16.416570204492324	Ragunda
968321	57.01691833079272	23.91109836579342	Riga
711400	59.51211583854322	17.924805174900744	Upplands-Väsby
965421	51.35037497903562	3.387127437406866	Zeebrugge
991621	59.04240784913981	10.019494305568934	Larvik
788500	56.92201223399254	16.757650380781936	Borgholm
918411	61.709335314168456	17.06906602648911	Hudiksvall
898011	59.6241179332624	16.548775874121354	Västerås
981700	54.98601999098649	9.202652706917336	nan
871500	59.53209475210556	13.29524273622067	Kil
886111	59.07579432784514	15.13815727732911	missing transfe
987800	54.9669347180062	12.298988289425306	nan
828600	55.42187151749383	13.849971803069815	Ystad
970611	59.89448149772368	30.1656339777797	St.Petersburg
974911	48.40999045275307	16.310373819959487	Wien
730521	59.54073054078844	17.526173726296463	Håbo
719200	58.91025494657162	17.939922861444693	Nynäshamn
718031	59.33780785936907	18.11788496694024	Stockholm
961511	58.14795979188142	7.998647896088958	Kristiansand
974000	53.98715135168917	12.04670987817245	Rostock.Tysklan
963921	55.67870235005766	12.623958278550026	Köpenhamn
718200	59.30196127098094	18.139905362571817	Nacka
987200	55.8107271575356	11.531019160123654	nan
848721	58.378687526602064	12.3087276929184	Vänersborg
962200	60.947164485729	24.492825891728057	Hämeenlinna.Fin
718400	59.35820816038144	18.003063726607845	Solna
990211	60.16906008488779	10.24509728316628	Hønefoss
991121	58.34759307086405	6.297820052582217	Sokndal
886400	59.90979955788927	15.099232186032102	Ljusnarsberg
968221	57.37832585042157	21.53496058265119	Ventspils
768700	58.01354065769388	14.927225815832518	Tranås
965521	50.90976064133359	4.498499175967314	Bryssel
962011	60.410043385733765	22.222915916700867	missing transfe
972321	53.65628434944514	-0.1206382572227029	Hull
960300	69.96595201839341	23.273162606350787	Alta
746100	59.05538570142814	17.324916178758787	Gnesta
827600	56.15072717775174	13.19030453819616	Klippan
938000	63.12738446877293	14.429321790074912	Östersund
978300	55.9503552545541	9.757846806332736	nan
962400	61.0207269770535	25.63622266920764	Lahti.Finland
971600	43.58229671745442	-2.757389373191634	Bilbao.Spanien
713900	59.498205003838535	17.65905502552938	Upplands-Bro
748200	59.065730883140176	16.712454457664336	Flen
991700	59.58429500961654	11.164582374629676	Askim
980000	55.64348067089556	12.415663919396918	nan
928012	62.814226901841344	17.84761533253025	Veda
827300	56.41084409174685	14.088059128360625	Osby
990400	60.18441645789189	12.003832619486715	Kongsvinger
985000	55.15515298525954	10.261414134189332	nan
969121	52.490044785574746	5.22814687204244	Amsterdam
942200	65.59379478393592	17.604515996552465	Sorsele
963331	63.1182289029048	21.572774866399055	Vasa
849700	58.29831183134252	14.20209464152771	Hjo
971011	48.82517636262714	45.169393648212925	missing transfe
963901	55.71255485315204	12.608370101843532	nan
972933	54.50528651035312	11.22245987562709	Puttgarden
908411	60.12145777677612	16.264332336905944	Avesta-Krylbo
871511	59.4988926111654	13.30451387193871	Kil
878121	59.31396059745815	14.08532413429934	Kristinehamn
968331	57.02904682449826	24.009563283970817	Riga
841900	58.01746514449344	11.69234553828553	Tjörn
960521	60.38902076372006	5.328218060308346	Bergen_Sea
838000	56.62219590825319	12.782942038138218	Halmstad
844000	57.931336472611534	12.107648964992098	Ale
982000	55.7330835520677	12.360040816474626	nan
974100	51.97133935063038	13.70700030654969	Cottbus.Tysklan
840102	57.66094347461682	12.128881946523013	EXEL
712602	59.284713713145536	17.94354531331634	POSTEN
876500	59.42829163131269	11.977145005370456	Årjäng
973400	50.3824104274336	8.632011319603903	Frankfurt.Tyskl
823300	55.47500186749803	13.021710907454194	Vellinge
987600	56.1701357375686	10.02109187578663	nan
965700	43.15031721438131	23.43105003083011	Sofia.Bulgarien
950500	65.63833512173866	19.12001858336998	Arvidsjaur
918000	60.71614386100379	17.16069871693983	Gävle
991400	69.23404468219017	17.986961691667688	Lenvik
932100	63.39697387151822	13.60389851032478	Åre
846011	58.995368592106985	12.261433295518064	Billingsfors
965511	50.88744352245004	4.541953850781801	missing transfe
958400	67.90932937903317	20.364426161141942	Kiruna
788021	56.65890242627555	16.372914602962705	Kalmar
969300	52.67609347979596	16.89799284348312	Poznan.Polen
966322	49.6093745386191	0.3994120163931996	Le
778100	56.83982921389267	13.937338767983322	Ljungby
951412	65.85452101061756	23.14360580333093	Kalix/Karlsborg
916112	61.72028593123015	16.152589878402452	Skästra
968311	56.982491703016606	24.01029650059943	missing transfe
942511	64.24381157774539	16.490652441173406	missing transfe
798022	57.704014896933295	18.80664878090462	Slite
964431	55.097442195445005	14.685332066952151	Rönne
844400	58.34201709032817	12.679943489093995	Grästorp
948000	63.77091744480122	20.500953730421077	Umeå
964421	55.09646257527311	14.688787245706248	Rönne
827700	56.13918286213962	12.989979207996733	Åstorp
982500	55.83429721858198	12.488782903009932	nan
969700	52.53746976487704	20.896086468446224	Warsawa.Polen
961401	69.68602963846745	18.994721881982024	Tromsø1
846000	58.99439254700238	12.203179147211811	Bengtsfors
983300	56.49538057480547	8.284448852131087	nan
962311	61.41822912013834	23.73458536528945	missing transfe
991600	59.05525797105272	10.028458129372794	Larvik
951800	66.46494354253035	23.47012935934357	Övertorneå
963700	60.09258628726244	19.866509490405967	Mariehamn.Finla
979900	57.04992675406481	8.795237951801253	nan
967921	39.52727535721729	8.918317250743646	Cagliari
848009	57.700673592067695	11.813812962217972	MAERSK
987900	55.85721248426446	10.5886303718818	nan
918300	61.3061715990009	16.342560408615306	Bollnäs
961600	59.13160154545484	10.223552483880985	Sandefjord
991100	58.3459683127871	6.284656061168752	Sokndal
974500	50.72358326416258	30.253449530490137	Kiev.Ukraina
984700	57.09907551406957	9.358848874657728	nan
838200	56.85513058024056	12.37532453412798	Falkenberg
764300	57.9283983856984	14.06679516677455	Habo
849200	59.02090662002855	12.742224715840996	Åmål
876000	59.56790913701661	14.35259880675405	Storfors
846200	58.10632741898895	12.225395956111807	Lilla
970011	39.29428338046057	-8.987434166006603	Lissabon
928100	62.39124526732051	17.461925153076937	Sundsvall
829000	55.99858608256631	14.16080450342683	Kristianstad
898211	59.98091552728224	15.84932866815282	Fagersta
941800	65.1887533525739	18.751123759800358	Malå
848011	57.70155206040281	11.951574535784165	Göteborg
766500	57.4437536189009	14.08983270978607	Vaggeryd
786011	57.51015708009157	15.84305162127607	Hultsfred
967700	42.380090325714015	12.47380606741437	Rom.Italien
849001	57.72949969642141	12.923547924476242	LBC
971411	48.36965130830202	17.046335259716972	Bratislava
972200	55.582941081512814	-3.902148885112444	Glasgow.Storbri
718002	59.27890384985773	17.910208485557064	LANDET
962600	61.551774487000166	29.20422249735662	Imatra.Finland
987300	56.23064008136183	10.627926319495456	nan
848100	57.638188795848905	12.011861251172544	Mölndal
940121	63.53300748553648	19.45261444969243	Rundvik
840141	57.65432212184261	12.272244996494454	Landvetter
966400	48.84159304527719	6.098394587392392	Nancy.Frankrike
756000	58.15577335263316	15.125738558305017	Boxholm
970421	68.96960471960027	34.5950129349816	Murmansk
983500	55.653573255403685	11.602192162147274	nan
808201	56.17592016057569	14.84585446497988	SCHENKER
958021	65.54674587174962	22.25035465259757	Luleå
876400	59.3407615976759	13.200394749903	Grums
965711	43.084296231998	23.21689449474632	Sofia
916100	61.770268596020735	15.755726708758344	Ljusdal
969231	54.09457179618696	14.418812065541877	Swinouscie
970700	55.89238544775034	37.238914095717945	Moskva.Ryssland
969600	54.397839822192665	18.198171418122744	Gdansk.Polen
930500	62.80971022164111	15.426623657849149	Bräcke
970400	68.58966041104257	33.89722084636944	Murmansk.Ryssla
918421	61.62502091841965	17.12116813463028	Iggesund
848621	58.93368263148448	11.167192283441032	Strömstad
969621	54.550500259545	18.36449136977321	Gdansk
966600	43.62450490895204	5.449111123053295	Marseille.Frank
990200	60.16632160670077	10.25650445441724	Ringerike
838221	56.88804215976717	12.476455461721873	Falkenberg
991521	58.14195462119213	7.029168764283577	Lyngdal
964611	54.836945791404325	9.356986035306145	nan
713600	59.14046431932936	18.128940355041767	Haninge
983900	55.60410000089093	11.279599961960304	nan
748011	58.77273877174462	17.03269090506159	missing transfe
838021	56.654635838917415	12.85461997459666	Halmstad
828031	55.59046187994688	12.932745579381866	Malmö
962500	60.49913284438225	27.113666743033654	Kotka.Finland
758112	58.56319039888491	15.905681794444536	missing transfe
768001	57.686956167151465	14.145467172902524	UNITED
965600	44.11876215475511	18.496443115025887	Sarajevo.Bosnie
984900	55.67503135985721	8.255731277614602	nan
977511	55.56176524728674	9.75141605583229	nan
731900	60.61442221756727	17.43040262565708	Älvkarleby
990901	60.67025722750456	10.688476215690974	Vestre_Toten
974200	52.13683198297333	11.447623209139689	Magdeburg.Tyskl
960500	60.39161379933653	5.3278072382890125	Bergen1
738200	60.155792652270215	18.09216178006754	Östhammar
978900	56.498819766839325	9.560993576082568	nan
902900	60.70149549992309	14.959151994544976	Leksand
983400	56.82411038440293	9.82334856433526	nan
979300	55.964821503675886	8.572787219724116	nan
848000	57.69929123155262	11.862788666166365	Göteborg
981000	55.95990307663558	9.225939481005684	nan
846111	58.702691409618105	12.453312890255845	Mellerud
942500	64.32161568518823	16.363081271441548	Dorotea
982700	55.02374446342403	10.58466278702178	nan
888311	59.311996208344986	14.550863218608384	Karlskoga
990501	60.63590187878672	6.430735619368689	Voss
991221	63.31267383109849	9.820577086157664	Orkdal
823100	55.64408086852389	13.028768193339875	Burlöv
711700	59.478721941105874	18.293389063486117	Österåker
840100	57.69328659745679	12.266294531557724	Härryda
758301	58.53294626233959	15.080201415043089	ELECTROLUX
958001	65.63300234201814	22.043325470865785	missing transfe
990800	63.471886088517	10.918315315152258	Stjørdal
712701	59.2261848725639	17.83576490017153	KUNGSHOLMS
848521	58.34818336768653	11.890712364450014	Uddevalla
971711	40.73200413411287	-3.58823380901399	Madrid
978500	56.63171614080492	9.73337465865666	nan
979000	56.32319914691082	8.392332816086112	nan
896000	59.4417800219714	16.139953445584087	Kungsör
983600	55.288357665915655	12.059646350342392	nan
965400	51.249206523663766	3.4838011925454877	Brugge.Belgien/
828009	55.60223698315426	13.099445827547044	POSTEN
908111	60.47024885018404	15.427761241133902	Borlänge
967721	41.97990169448287	12.202802147332134	Rom
968111	46.05222152505143	15.83674447850824	missing transfe
977800	56.147880007524336	8.994638788901774	nan
948200	64.79572704452752	21.21024146249117	Skellefteå
782100	57.19737183319824	16.086481193866092	Högsby
766211	57.16161678212871	13.415538719280846	Smålands
967100	35.89958128551648	24.69810195930373	Iraklion.Grekla
788231	57.27473559885097	16.465749629079966	Oskarshamn
716200	59.40243520650805	18.04116925976092	Danderyd
928300	63.19888648300508	17.380760334213488	Sollefteå
972921	53.95608621732087	10.830227245639804	Lubeck
966000	59.21958840460391	27.17015072850517	Kohtla Järve.Es
758111	58.57508123457904	16.158593027794154	Norrköping
960411	60.71825902226051	11.19513217428022	Sørli
967511	45.66984093450594	9.152402939959646	Busto
840200	57.68942181622784	12.132334124605803	Partille
990500	60.62917657322307	6.42168682678542	Voss
843000	58.48415653804229	11.672063929431994	Munkedal
972621	51.44298805594215	0.4115734127540172	London/Chatham
982300	56.74217928766429	10.025081284136684	nan
828321	56.03055627899958	12.693552640751316	Helsingborg
776300	56.55120529039594	14.997072087266446	Tingsryd
967341	53.23678794846118	-5.754482722059964	Dublin
768000	57.78334846357304	14.14638640416916	Jönköping
838002	56.63972874505035	12.929507630359318	LIDL
888000	59.318439056416814	15.143005434253345	Örebro
972900	53.82337035628576	10.790682071732409	Lubeck.Tyskland
928022	62.7716699969957	17.929763880278475	Härnösand
974600	47.72761737335829	19.015522796608767	Budapest.Ungern
946211	64.61324613174237	16.690047192167825	missing transfe
828331	56.04257126637235	12.692032775524195	Helsingborg
969500	50.47211396669282	19.09773766502392	Katowice.Polen
828003	55.57145563833968	12.919626695420964	DHL
758400	58.47328361822321	14.80952289077003	Vadstena
776000	57.086095610074445	15.261024065986048	Uppvidinge
888200	58.80822834206667	14.940108815390127	Askersund
965931	59.43448727752776	24.77060815453587	Tallinn
758601	58.38465275919143	15.09542703378171	RUNSVEN
718800	59.755855693661005	18.69937773017441	Norrtälje
849003	57.68906150273771	12.82167307362043	SCHENKER
748121	58.66107704049109	17.126883092195587	Oxelösund
786121	57.097759448353415	16.553838194544777	Mönsterås
878021	59.36541600989136	13.52584624792697	Karlstad
711401	59.49963697072143	17.928319720532574	PANALPINA
873000	59.79654301333588	12.295111266717043	Eda
961721	59.18813251904972	10.960683061499877	Fredrikstad
748403	59.38151611864087	16.594382867359162	H
828011	55.60670383037304	12.97428199830063	Malmö
918200	61.26907083777546	17.158299564534154	Söderhamn
971700	41.00279146305477	-3.496859472704045	Madrid.Spanien
938011	63.18264302162375	14.639420509339311	Östersund
967121	35.8925292298773	23.51253417832873	Iraklion
982900	55.81862873444394	12.013206398446338	nan
808300	56.04575971274038	14.675570563478846	Sölvesborg
756100	58.22719610789315	16.128503282267918	Åtvidaberg
971311	47.16178071622918	7.458333191626079	Basel
826400	55.47574169459276	13.489878125009328	Skurup
981200	54.81173821938541	11.934672557855338	nan
908500	60.14616998663359	14.995137890035092	Ludvika
963521	64.9637657950749	25.566450077846767	Oulu
969411	51.33183479905471	16.92693535021224	missing transfe
974511	50.69905815835282	30.29438452112517	Kiew
828631	55.42445118502593	13.828249370154648	Ystad
972311	53.28420195443929	-2.2895229980089864	missing transfe
838401	57.50425986278528	12.072748485890653	SCANDI
980400	56.07972588416868	9.876706868884003	nan
974311	51.048251576568695	9.717160464711682	Erfurt
926200	62.49502629206127	17.32795309952092	Timrå
990700	66.3112711551936	14.141453055665892	Rana
718004	59.362355450552414	17.951327488253785	UNITED
829200	56.23594965106615	12.902133457516529	Ängelholm
758001	58.414127424066514	15.665301573883651	ELECTROLUX
981600	55.39766891019641	8.736390435097052	nan
926222	62.50462804571411	17.48972664741543	missing transfe
878011	59.36745785415963	13.453963970580698	Karlstad
991401	69.25806870788111	18.075874273398263	Lenvik
849400	58.47543381848882	13.011090866831676	Lidköping
948221	64.663405525008	21.265830655398982	Skellefteå
967321	53.18946634914356	-5.6101636243071695	Dublin
886100	59.06990902950783	15.177550609048936	Hallsberg
826301	55.542285790456994	13.367032097015842	UNITED
970300	54.78199958309533	20.3016214836292	Kalingrad.Ryssl
848200	57.887949518051386	11.859018207818153	Kungälv
965900	59.40803519820559	24.66286833281163	Tallinn.Estland
966900	41.15392746485642	23.09146628589346	Thessaloniki.Gr
788400	57.69784166982283	15.838682693536647	Vimmerby
991000	58.45064817149743	6.001022735573572	Eigersund
978800	55.83028032914487	9.898120505189084	nan
960600	62.47387625370396	6.1574164204800095	?lesund
838100	56.51808266025759	13.059367203622667	Laholm
718700	59.40597362168536	18.340964516031388	Vaxholm
713601	59.138648075588165	18.114783820275253	LAGENA
971000	49.08558203504152	46.22565333391597	Volgograd.Ryssl
898000	59.64598969562992	16.4825409767175	Västerås
848701	58.34198780002579	12.252048924827674	SCHENKER
967811	41.18287535768486	14.110041751198857	Napoli
971921	39.77683161776581	-0.3962946554604417	Valencia
985600	56.93676434957558	10.15697712491458	nan
821400	55.91709465710535	13.10198932227661	Svalöv
990600	62.85972568288779	7.171878076737418	Fr'na
970600	59.53222878137132	30.31636514633636	St Petersburg.R
846611	58.07050594192568	13.050788993302158	Herrljunga
983700	54.91481179200404	9.916303297458663	nan
918401	61.75014988594696	17.107420911034794	missing transfe
960701	68.42908573111575	17.43561467371253	Narvik
967711	42.15679722838726	12.363615656254726	Roma
965523	51.310289275978384	4.583137398963999	Antwerpen
764200	57.94287396360702	13.82959085433532	Mullsjö
977711	55.490894613330205	9.480929426125748	nan
961911	60.14702794783939	24.91945241182662	missing transfe
906200	61.004732661426594	14.494428509969474	Mora
918011	60.69323244446837	17.17784707211235	Gävle
960511	60.39045002276329	5.332907745545075	Bergen1
840103	57.68676739876901	12.16207771225402	POSTEN
848900	57.96086593371221	12.52728178721718	Alingsås
986500	56.5863295768099	10.184374097124254	nan
788200	57.29244454101658	16.385641102481394	Oskarshamn
738000	59.84856904816265	17.64268576685137	Uppsala
918100	60.63055686379654	16.66371584831798	Sandviken
977700	55.44905378880917	9.431679201811969	nan
768311	57.17054282851426	14.086799835118368	Värnamo
906211	61.00695271061611	14.53766805459355	Mora
844721	58.94921270894337	14.03190390453764	Otterbäcken
980200	56.10271661176261	9.5000596353398	nan
828711	55.373957295612016	13.146391880309652	Trelleborg
748000	58.81254760236776	17.206980555327092	Nyköping
962121	61.45946290224088	21.7187210312075	Pori
808031	56.15809060452765	15.64125586420083	Karlskrona
750900	58.19232397598472	14.706761997072366	Ödeshög
712000	59.32415503384913	18.38743882574161	Värmdö
984031	57.43255853698727	10.548847298379426	Fredrikshavn
738011	59.859171556951445	17.647099506710028	Uppsala
986200	55.06272658437945	11.972680956636044	nan
971500	46.18981971549335	14.479052321966412	Ljubljana.Slove
714001	59.18288442642199	17.441583722319155	AB
961700	59.213749182411725	10.934505956996842	Fredrikstad
972121	54.439484628638645	-5.35979054643349	Belfast
974111	51.23773481941421	13.640862859480306	Dresden-Neustad
826100	55.77882794609688	13.070127491009162	Kävlinge
986800	55.09757725157104	14.979471331119775	nan
981100	55.28503192949624	11.362635801041629	nan
952300	67.14194840261553	20.64978643301118	Gällivare
941700	64.92829272223507	19.49357073751677	Norsjö
878111	59.32779286715353	14.124845631633448	Kristinehamn
849501	58.37056007577662	13.407014459822756	SCHENKER
926000	62.52655885273861	15.669122114403304	Ånge
961300	59.480417870539554	8.633532115595893	Seljord
969200	53.58088339064076	14.804247818706289	Szczecin.Polen
969021	53.29741517882692	7.01681893285321	Delfzijl
982200	55.452384618282366	9.886169513956192	nan
960911	61.115167619888645	10.461180998257449	Hove
758104	58.582749542998506	16.21336987152204	G:SONS
876121	59.32525184763816	13.44709407980854	Karlstad
848421	58.271627431150606	11.446873707517293	Lysekil
826500	55.651592306859165	13.725801712336096	Sjöbo
963100	62.35978966786024	25.596729669863468	Jyväskylä.Finla
719101	59.64674276685234	17.935812626118672	DHL
990801	63.43178350812254	10.939885948313016	Stjørdal
719221	58.91635321995153	17.964070630021986	Nynäshamn
965522	51.10444759891665	3.954506325538852	Ghent
878411	59.66205560785468	12.615091848753876	Arvika
964900	56.04863879856836	8.834115445382322	Holstebro.Danma
903900	61.30816200408771	13.71468035159174	Älvdalen
738221	60.167970350807295	18.4846616080954	Hargshamn
898002	59.593739900685335	16.512126208771768	DHL
973900	52.71216504709148	13.57092035571704	Berlin.Tyskland
898300	59.508155606310496	15.984237844559782	Köping
980600	55.67956514212367	8.615213627094672	nan
970900	64.65783786604239	42.06715490393553	Arkhangelsk.Rys
788100	56.77294618390452	15.870633563261844	Nybro
946000	63.87810946537511	19.77263171950101	Vännäs
898321	59.49867027180247	16.026529764035878	Köping
847201	58.41534592536579	14.132863903597718	LBC
881400	59.15899372629775	14.906797348551484	Lekeberg
758200	58.5109343475152	16.378248848014625	Söderköping
962300	61.42159088003123	23.860570647213752	Tampare.Finland
798031	57.63801430997165	18.26751070009147	Visby
951400	65.78523055764417	23.070987876070784	Kalix
958311	65.84137015407886	24.127023045474765	Haparanda
971811	41.39263132275261	1.2425921317469606	Barcelona
968800	42.00216229445318	21.417252445987398	Skopje.Makedoni
849211	59.04658961770841	12.68056031988306	Åmål
965100	56.43890987851361	9.3606306063246	Viborg.Danmark
974031	54.25368431191642	12.18292502123164	Rostock
844500	58.19048361637238	12.7272627038973	Essunga
738222	60.403673761507896	18.21103081373507	Hargshamn
961000	58.94692770301272	5.745853887183145	Stavanger1
849500	58.35971633028905	13.468010135093062	Skara
718831	60.11035813054067	18.813670078631105	Grisslehamn
961821	58.45606596579733	8.755764282426382	Arendal
748600	59.298766830261336	17.068908614337396	Strängnäs
848501	58.36908765186446	11.975424343494357	ABBA
958411	67.8524083905081	20.224464223873643	Kiruna
713800	59.24686722617524	18.20641388099644	Tyresö
846600	58.055090974984815	13.094846463934458	Herrljunga
981500	57.45775333454827	9.989311518960262	nan
964800	55.64370671630878	9.538651063079026	Kolding.Danmark
965821	35.17881944201425	32.939404204075	Larnaca
736000	60.44310509405447	17.494493553401966	Tierp
841921	58.01082139292659	11.699563902279348	Wallhamn
972141	54.31353385867766	-5.435353609493942	Belfast
748411	59.383108588467415	16.490061575767353	Eskilstuna
786000	57.41952481997507	15.85512020598925	Hultsfred
828000	55.59161687058068	13.013466141904322	Malmö
968711	54.863262860776366	25.12019130933576	missing transfe
967900	39.36206535853387	8.690165112762	Cagliari.Italie
987100	55.95048567238192	12.443618041200152	nan
848002	57.739319768287295	11.997468503327775	HECKSHER
778001	56.89765675429866	14.756708017305996	DHL
961900	60.23417739498164	25.0974609182134	Helsingfors.Fin
958100	65.30447264219761	21.630734997907783	Piteå
766212	57.21774896039098	13.270872799876914	Smålands
918221	61.18843071411484	17.174550189084606	Vallvik
778000	56.92320858869026	14.77724070962647	Växjö
926221	62.47562094558484	17.333814981714077	missing transfe
958012	65.60262361449037	22.116394268604505	Lule
968011	45.13811333298596	20.306948879442945	missing transfe
970211	44.94344345984098	25.939782622651222	Bucuresti
974400	51.75823362089927	12.074019346241569	Leipzig.Tysklan
848031	57.70204498407231	11.890588659792211	Göteborg
980100	56.3113271942979	9.930818077313589	nan
718821	60.06011943312867	18.585454719153272	Norrtälje
788300	57.81293922892967	16.44443045762925	Västervik
848001	57.77643159405051	12.00094774569294	FRANS
758102	58.60758464093017	16.179633987053933	KUEHNE
961400	69.63919787752965	18.90413121081416	Tromsø1
788321	57.75131380887384	16.66395454256673	Västervik
718021	59.34582046490399	18.12477828336445	Stockholm
972000	38.079158402028426	-11.158976766694492	Spanien
987400	56.02844103114495	12.1496826299904	nan
950600	66.08824067339896	17.875913391496606	Arjeplog
960700	68.43726369398085	17.428686866905895	Narvik
718832	59.71279862312769	19.08699103105582	Kapellskär
960621	62.47577569405303	6.200009066039724	?lesund
969900	50.12891220823891	19.95540220885907	Krakow.Polen
844700	58.94331509032292	14.085420434784814	Gullspång
967200	61.26231025674365	-27.846684253182023	Godthåb.Grönlan
776411	56.9169467723785	14.552583640592948	Alvesta
783421	56.382802647315614	16.091038650218696	Torsås
748404	59.39906462727902	16.42858929565297	VALBRUNA
776500	56.581793548261935	14.24463126081429	Älmhult
844001	57.96083631638528	12.120490161009265	DHL
948201	64.74598295878171	21.03264254170433	missing transfe
930900	63.41750531064032	14.463420568618227	Krokom
960301	69.97074517868919	23.357624026449585	Alta
973221	53.51934149108007	8.612319414853358	Bremerhaven
968921	36.0714003623367	15.3949069441769	Valetta
979100	56.46115796229728	10.635220078990692	nan
980700	56.63580884557994	10.006632164552212	nan
965800	35.48859804437774	33.09275236289356	Larnaca.Cypern
962211	60.9482179543343	24.39738412035713	missing transfe
829301	56.29684110154792	13.68922100782807	TRANSPORTSEKTIO
828001	55.62787064426104	13.02672289461749	AKKAFRAKT
984000	57.4277233197351	10.431544829215309	nan
960211	59.74093547997679	10.20388198872673	Drammen
973011	53.61507284706634	10.054621546583682	Hamburg-Billwer
972600	51.324993495981225	0.2149862610072881	London.Storbrit
961200	63.42772549199152	10.414014590126463	Trondheim1
928011	62.62907400405974	17.931871647314612	Härnösand
982400	56.46380934875798	8.55786506059998	nan
928200	62.94280749163702	17.563966325259447	Kramfors
878003	59.375153253893416	13.55323217457446	SCHENKER
942100	65.13064236188661	17.098063731084263	Storuman
788001	56.70173560334537	16.31698233054344	DFDS
948100	64.50158965673324	18.60252411701413	Lycksele
965300	41.26354475146788	19.824260842136635	Tirana.Albanien
712301	59.40189693482544	17.886921720412495	DFDS
878000	59.418483428294266	13.462388340434831	Karlstad
742800	59.03551778827568	15.840010139587474	Vingåker
910400	60.54257237026477	16.31536374706681	Hofors
849000	57.66334451876103	12.889440576066203	Borås
808200	56.16566522465784	14.836233809579774	Karlshamn
758103	58.60806932872847	16.2238859158586	DFDS
843011	58.448155648727976	11.65986507978129	Munkedal
888300	59.33101337310556	14.629875243828527	Karlskoga
948001	63.84408652552702	20.21763780401886	DHL
964400	55.10196193466083	14.695797158819513	Rönne.Danmark
966721	38.00072568266508	-11.045620129506364	Fr
972911	53.95026544553423	10.706061570294906	Lubeck
964200	55.333548570293935	11.225042737197924	Slagelse.Danmar
966100	58.38982611467894	26.788264379545893	Tortu.Estland
990100	59.88968077120012	10.521763146162003	Bærum
972300	53.25297043799357	-2.3409862616545967	Manchester.Stor
733100	60.0359287944012	16.95344666184849	Heby
826300	55.51720233041146	13.224247905266887	Svedala
965932	59.243889315370254	24.02174993892036	Paldiski
828101	55.68517642960158	13.18164505887208	TNT
966800	60.21227161746652	-8.787260858962211	Streymoy.Färöar
966511	45.91728841691481	4.893261548898279	Lyon
968222	56.60913245374358	20.975610582071177	Liepaja
983200	56.41100472591906	8.791331590279045	nan
878300	60.07034005576623	13.669522842849082	Hagfors
902100	60.49340410810287	14.347886551368289	Vansbro
940400	64.285285117925	19.83121413100776	Vindeln
961500	58.148908653130455	7.9962448054155315	Kristiansand1
974611	47.74561569766632	18.98461836209284	Budapest
963900	55.71321150148376	12.519169533354784	Köpenhamn.Danma
960121	59.8883326439385	10.75223999689511	Oslo1
991311	59.55884644164489	9.26802153051272	Notodden
838301	57.12010204663313	12.291998357331686	COMBITRANS
711402	59.50647854117819	17.887372204203373	TNT
847300	58.68354020695572	14.132768162443451	Töreboda
886211	59.23509697302081	14.429369944511269	Degerfors
849311	58.697003673986174	13.825627892452133	Mariestad
963731	59.96444021709186	19.841020368141127	Mariehamn
848021	57.68885442411366	11.855131924505551	Göteborg
960900	61.11493770463108	10.467719593151838	Lillehammer
991921	67.28575664250805	14.402175254826284	Bodø
751200	57.78496348915617	15.33785721438436	Ydre
823101	55.63742575448234	13.068030175860214	MÖBELKILLARNA
828302	56.00915571769033	12.771190307922204	SCHENKER
971200	57.5742399481612	65.7763199157968	Ryssland
962000	60.43580731051674	22.403079916216345	Åbo.Finland
971400	48.3684003880548	17.206432187610638	Bratislava.Slov
985200	55.12201041161186	10.6030030619919	nan
968231	56.58413107672664	20.980625074982573	Liepaja
964721	55.460469841100426	8.445855976323315	Esbjerg
951421	65.79197828562572	23.286337499718734	Karlsborg-Axels
840101	57.67247227033261	12.301408336182464	TNT
963400	63.711555371952535	23.38582576214253	Kokkola.Finland
849800	58.11482323937974	13.977910090598035	Tidaholm
913200	61.94710382402715	17.11202712742573	Nordanstig
778002	56.92419407863902	14.73025031811389	DHL
961100	61.18509300710571	6.798165881174361	Leikanger
948012	63.822832947105	20.245468742216783	Ume
827800	56.38574042333499	12.777263106475097	Båstad
946300	64.21749750606543	17.36835999466984	Åsele
768211	57.67940274931273	14.656082628158718	Nässj
843800	58.93159955372425	11.896776719093111	Dals-Ed
968700	54.885729456817465	25.07322114062892	Vilnius.Litauen
786200	56.62740009635335	15.632566951980486	Emmaboda
973100	52.48786530764108	9.939223806080127	Hannover.Tyskla
974900	48.52364394589318	16.226488615740177	Wien.Österrike
970800	55.44729238839197	54.80082791326322	Kazan.Ryssland
918223	61.21119543260637	17.16066605306007	Vallvik
878100	59.272867185008366	14.230125152971326	Kristinehamn
964031	56.03311397166598	12.615383991928724	Heslingör
969911	50.247081624605705	19.737928958868626	missing transfe
968531	55.8134002373065	20.988744122842583	Klaipeda
991900	67.2842575891873	14.385271727248362	Bodø
908200	60.35859804735961	15.67642654169328	Säter
825700	56.30828392140871	13.3330393714391	Örkelljunga
948002	63.84861363779107	20.216847708775525	DFDS
972500	52.38153102276089	-1.5868953337446063	Birmingham.Stor
967000	38.600412607155405	23.937316062695785	Aten.Grekland
758101	58.61664107987638	16.181316441337565	DHL
958011	65.62337328143848	22.060343094858577	missing transfe
719231	58.9008849480316	17.960661131467916	Nynäshamn
848511	58.35781993411405	11.913804338896698	Uddevalla
961621	59.12227426761682	10.219429692962269	Sandefjord
966311	48.96208008208818	2.5937520912322367	Paris
971900	38.00570351485688	-6.029198316070939	Sevilla.Spanien
768600	57.64339844591181	15.024959931373855	Eksjö
849301	58.70209818398985	13.82286764111361	ELECTROLUX
963600	66.53700725183285	25.963221346703413	Rovaniemi.Finla
961221	63.44097982180947	10.34842351808823	Trondheim1
730500	59.56317879826896	17.5034248743723	Håbo
798021	57.625366193612464	18.263022880476825	Visby
985431	54.65351440678911	11.348917315002284	Rodby.Danmar
973711	48.30335563284496	11.520791584393542	Munchen-Riem
748100	58.66793812697159	17.28734302143526	Oxelösund
878001	59.37722745483234	13.562120491357692	LBC
938001	63.17333494991456	14.688392748470235	SCHENKER
873700	60.49539396374553	12.966351013631588	Torsby
712300	59.40563695478314	17.847586177858815	Järfälla
961800	58.46033772381529	8.76394020434949	Arendal
738100	59.67564130706813	17.083041278949135	Enköping
847200	58.4239331743546	14.19634471924395	Tibro
798000	57.60019052823422	18.17872441015461	Gotland
878500	59.17007984725501	12.744644559772128	Säffle
963200	62.9005435150476	23.25565662821736	Seinäjoki.Finla
838321	57.11531030551805	12.237170376002434	Varberg
903400	61.17194324157662	14.727288584727146	Orsa
963732	60.123834856212696	19.65588916029462	Ecker
965200	56.97052517354573	9.886864279783056	Ålborg.Danmark
928021	62.64614229727372	17.93180195006874	Härnösand
731921	60.64519563728312	17.397596410715966	Skutskär
898400	59.42695382878264	15.84563441433751	Arboga
973000	53.64580689056572	10.351613332889656	Hamburg.Tysklan
758000	58.452804110181	15.654551043815852	Linköping
969100	52.474846808351735	5.0062838533516745	Amsterdam.Neder
847100	58.53760386783175	13.418340237922523	Götene
838001	56.65467000679761	12.89344807883884	DHL
982100	56.24660875493392	9.525781584004047	nan
972400	51.52649310534283	-2.840323905805183	Cardiff.Storbri
968900	36.20961767445545	14.635771750332529	Valetta.Malta
758121	58.62017915203076	16.24428257621627	Norrköping
826121	55.744989314173495	12.923942698441936	Kävlinge
828200	55.86009415900238	12.813614531849156	Landskrona
986000	54.7567985122437	11.695053918982875	nan
827301	56.36402649378034	14.016658425098043	DFDS
940100	63.5245750979104	19.624922265014163	Nordmaling
768400	57.3732830821525	14.696532503780467	Sävsjö
987700	56.067316400135375	12.295289678410358	nan
951000	66.63850103791368	19.91634169237692	Jokkmokk
960321	69.9610605896377	23.19583131585268	Alta
940900	64.15850485116744	20.947425308525396	Robertsfors
756200	58.74205357383352	15.80510652460124	Finspång
827501	56.14169496843158	13.381300588553346	ADR-TRANSPORT
849911	58.15418009802032	13.536670519998683	Falköping
848101	57.649170489728405	11.989835261752882	KAPPAHL
798023	57.83556419520686	18.797268146358245	Slite
973611	48.87154630182874	9.22031080230207	Stuttgart
828721	55.3695541331428	13.146439957623915	Trelleborg
981400	56.664024766241866	8.942096584381527	nan
970021	39.29620826325952	-9.160445858059347	Lissabon
838300	57.14085349200895	12.246177059391666	Varberg
960801	64.02057260030104	11.47913014753305	Steinkjer
827811	56.42619973748237	12.844475163451994	Grevie
827601	56.12645656248465	13.129499626289595	DHL
974811	47.99933229391284	12.964872767862731	Salzburg
956000	65.74402440122978	21.102191754573344	Älvsbyn
958412	67.63638649452263	21.07734956819546	Svappavaara
826341	55.53916315917564	13.348619126198075	Sturup
828021	55.62402281138253	12.994513817913958	Malmö
786100	57.07665107466743	16.44835997891619	Mönsterås
808100	56.207803088026296	15.267117325525469	Ronneby
963611	66.46358318537082	25.944229182722204	missing transfe
908102	60.46628064302308	15.404613996859164	DHL
842100	58.19490798267754	11.620700357764049	Orust
987000	55.29568058686113	11.64311717052238	nan
967800	41.220003935196615	14.147953073473609	Napoli.Italien
886000	59.01807543349527	14.67538603069864	Laxå
974300	51.19003059586165	10.005839343234156	Erfurt.Tyskland
928000	62.58151500305292	18.03899404125775	Härnösand
984200	57.27308092466518	9.985914411011558	nan
970621	59.88523706503238	29.97362477334196	St
965611	44.15947686372058	18.409433773331106	missing transfe
768004	57.67477795578586	14.16470026665264	DHL
984021	57.43788632529389	10.544362993956312	Frederikshavn
967221	61.32098084172205	-25.54822693411449	Godthåb
966911	41.04659756609057	22.978755504167523	Tessaloniki
962800	62.92714768553975	27.803714815458687	Kuopio.Finland
966611	43.5387075843492	5.3742267366178496	Marseille
786211	56.615018539353166	15.553660139289097	missing transfe
960501	60.39131221689252	5.328628646798792	Bergen1
964500	55.37579285128302	10.429821955261332	Odense.Danmark
990300	70.37218276637383	31.11526050984968	Vardø
876100	59.32844184432576	13.450991111829294	Hammarö
808211	56.18711496341455	14.81922500993954	Karlshamn
968100	46.03923637526533	16.24467945308234	Zagreb.Kroatien
990401	60.2020267308048	11.98399435844354	Kongsvinger
847000	58.26993401522412	13.061328746844644	Vara
712800	59.19160143420414	17.74743352693719	Salem
969111	52.37179204426822	5.079788975199374	Rotterdam
948111	64.57550337687054	18.651175737406376	Lycksele
968500	55.82840441798002	21.2207741324654	Klaipeda.Litaue
963321	63.08296172387311	21.56776221194956	Vasa
970100	38.28610890568791	-11.25715586401324	Portugal
973211	53.14436458367161	8.852523562251337	Bremen-Roland
969631	54.596914054819806	18.53728562922864	Gdansk/Gdynia
776100	56.762650520009664	15.232930884024166	Lessebo
960221	59.74438881196567	10.185207492581007	Drammen
965841	35.37182672154325	32.88429345267175	Larnaca
980300	57.05495317327568	10.233524194989077	nan
965021	56.1607104645759	10.22643167712194	Århus
969211	53.58193611400901	14.449884280199184	Stettin
960800	64.01891850385307	11.49244745450721	Steinkjer
985500	55.96945426691108	11.99020668977816	nan
783400	56.422571898099136	16.03202925732076	Torsås
906100	60.16271285910139	15.551140149010724	Smedjebacken
918001	60.68410049010314	17.142615432338904	DHL
928101	62.44653587286917	17.317006887058735	DHL
849600	58.42896226321485	13.90511938451122	Skövde
991601	59.04599612308304	10.044989230995878	Larvik
828221	55.86676471335901	12.819792809715215	Landskrona
963500	64.97250367869076	25.873342098374746	Oulu.Finland
828301	56.01623332150593	12.71109399344244	TNT
964511	55.401512873695815	10.381793206164147	missing transfe
716000	59.43767880747788	18.078736254350144	Täby
972541	52.38403228657645	-1.5594689990566517	Birmingham
965911	59.37787691301637	24.781281350869868	missing transfe
826600	55.849671472009845	13.70239627200686	Hörby
788000	56.6820380354347	16.327395225782	Kalmar
776700	56.53507755623697	13.754013819501376	Markaryd
980500	56.10992142586499	8.309465964579342	nan
918222	61.26145265961587	17.174188532663877	Vallvik
987500	54.919673973483015	10.776926927909948	nan
888011	59.297993965692434	15.243876618357062	Örebro
964600	54.87087929974472	9.339589134016457	Tinglev.Danmark
971800	41.47905389685387	1.0805847929541856	Barcelona.Spani
948211	64.68722763237514	21.21159837627863	missing transfe
848700	58.3874734670339	12.350836366652258	Vänersborg
971621	43.747762013739255	-3.508547357698293	Bilbao
965000	56.17987094330876	10.224048599426949	Århus.Danmark
977500	55.57333211650051	9.683791402629693	nan
966300	49.12534962687736	2.500279372619365	Paris.Frankrike
848400	58.31455605229809	11.435731288056752	Lysekil
978600	55.07967371448787	8.866259154944105	nan
985300	54.925617839889846	9.642733115992772	nan
826000	56.07700298908468	12.941473966664969	Bjuv
964011	56.02967403735519	12.604841694727805	missing transfe
958200	65.88729714662122	21.683979766858027	Boden
768300	57.14548210382504	14.01602081510137	Värnamo
898021	59.60711043106888	16.551537506335368	Västerås
970711	55.84182533434449	37.14987076060318	Moskva
985100	55.71860300140883	11.752480103276012	nan
848801	58.29971045706967	12.343576424464056	EXEL
973300	51.68252837108642	7.180656383660228	Dusseldorf.Tysk
978400	55.45609364260815	12.07010989733992	nan
986100	57.6034244602284	10.42992620004928	nan
848821	58.29730356292176	12.301599403668815	Trollhättan
829311	56.15322547033243	13.774127812906707	Hässleholm
908101	60.4854475444204	15.473632896712882	SCHENKER
948021	63.69186105265463	20.356806507983872	Umeå
848201	57.87760470436624	11.924705862048086	MICHELIN
733000	59.73514021312369	17.784101133569866	Knivsta
961011	58.94929818460061	5.743639586165065	Stavanger
928400	63.25810257803072	18.698782648130887	Örnsköldsvik
965500	50.84362876332362	4.331488085216781	Bryssel.Belgien
940300	63.88538868498697	19.00954593403741	Bjurholm
798024	57.38887144244634	18.185697553944788	Slite
844300	57.6913067283502	12.528229818843352	Bollebygd
760400	57.83945216612052	14.82197443095107	Aneby
928422	63.32100303723583	19.152038050695506	Husum
969221	54.07982230175608	14.455243882744432	Szczecin
968200	57.37337679633022	21.693657962408658	Ventspils.Lettl
979400	55.79367583035915	9.743028045400642	nan
946011	63.92112258094732	19.785474695389123	missing transfe
768302	57.21501609267573	14.03917368185759	DHL
952100	67.27322560529161	23.22488175332377	Pajala
902600	60.48269651425633	14.992176576659258	Gagnef
888007	59.21488874759461	15.149753306518797	DHL
977900	55.45724313874552	11.81752052323682	nan
932600	62.699924745415736	14.39849010231446	Berg
967600	44.07103631463223	11.35927496994887	Firenze.Italien
973111	52.456595285849545	9.797561394417029	Hannover-Linden
978411	55.46382450433544	12.188839745877583	nan
974011	54.12914930567581	12.103053868824206	Rostock
991911	67.2864323853082	14.39101823035833	Bodø
984800	57.203078951056746	9.708107948692042	nan
828311	56.04884377745661	12.695833444131251	Helsingborg
761700	57.3398222184701	13.745827709580142	Gnosjö
784021	56.34860474193841	16.40834916322756	Mörbylånga
918002	60.65619997078114	17.179554264483887	SCHENKER
718121	59.160749317212655	17.658349819269986	Södertälje
980900	56.79958536495223	8.730615242993805	nan
718111	59.19057004448129	17.645607285413394	Södertälje
910100	60.92782243071008	16.468857836359028	Ockelbo
826200	55.66754999071284	13.074814329986657	Lomma
972931	53.9837175178797	10.843641024186212	Travemunde
758600	58.29905659421674	15.235603144613648	Mjölby
828400	56.18729873809139	12.535231655002502	Höganäs
978000	55.47441872875103	9.051686582349092	nan
986600	57.18002398313353	10.25549723590376	nan
903100	61.00877084952524	15.195114314433225	Rättvik
848422	58.35329954906394	11.429258569556549	Brofjorden
961711	59.2087247108942	10.952110989961648	Rolvsøy
968000	45.17407805594648	20.590034475412583	Belgrad.Jugosla
878400	59.697751431034014	12.646678785248977	Arvika
967021	38.36375771641436	24.00150275706028	Aten
978700	55.7603811165634	9.30791885347714	nan
965921	59.42642832010004	24.672064209113096	Tallinn
990621	62.85357753248537	7.174906966513879	Fr'na
827200	56.047308371799865	14.473280991155796	Bromölla
886300	59.78309764137551	14.503580613957617	Hällefors
918400	61.63988821881829	16.94248310583303	Hudiksvall
958121	65.23531483466496	21.627505653826177	Piteå
968600	55.09249194406223	23.767600216649868	Kaunas.Litauen
961211	63.436655783659646	10.39812545058677	Trondheim1
758002	58.41698883826032	15.667752012263255	SCHENKER
979700	56.57324783217853	9.136410945806729	nan
972021	38.27743312909556	-11.056157550259954	Span
825600	56.23170538317295	14.128292145726776	Östra
712603	59.19531031112288	18.1166163364888	DFDS
981800	56.14901707689594	9.23509580549548	nan
948004	63.84913918723374	20.13703131039714	SCHENKER
888005	59.287618289023314	15.220633216767082	DHL
969000	53.19146489370027	6.796181833866921	Groningen.Neder
990701	66.30665058189771	14.133358651377328	Rana
849002	57.70196582501532	12.845905988796934	TOTAL
973441	50.21895797403827	8.359178206394398	Frankfurt
972711	50.18937217815596	14.415142828111469	Praha
908100	60.47075683451112	15.308821546638386	Borlänge
962521	60.39450031767306	26.85083428498385	Kotka
718311	59.38193247805023	17.935945887378058	Sundbyberg
912100	61.33324619966034	15.915222003587694	Ovanåker
849401	58.49398383909756	13.196388607238642	FRYSHUSET
991300	59.55905756506275	9.260536075339898	Notodden
978200	55.737570797553055	8.96865558542084	nan
966500	45.8830302945557	4.699280857222703	Lyon.Frankrike
831500	57.00787991341911	13.189719752900704	Hylte
849004	57.71610887543226	12.879989298508509	DHL
846300	57.5417731943655	12.655178598114178	Mark
964000	56.02804724536221	12.558555373081589	Heslingör.Danma
973311	51.51105723352062	7.274056013357613	Duisburg
958000	65.53851478769377	22.228256423825545	Luleå
876300	59.55300692062117	13.453075203803008	Forshaga
973700	48.151677944195306	11.320071096978944	Munchen.Tysklan
756300	58.25547046624198	16.622755454752827	Valdemarsvik
888002	59.244102996086895	15.122885176238904	DFDS
719100	59.62090992926758	17.860657159981375	Sigtuna
829100	55.56922514029587	14.299388316720991	Simrishamn
711403	59.520273788164936	17.901461597669698	VEDDESTA
748300	58.99874406838836	16.292380587106667	Katrineholm
712600	59.25137349429658	17.943650767267222	Huddinge
960200	59.74323862255161	10.207828428087158	Drammen
748800	58.91669508287126	17.506319206215043	Trosa
990711	66.30951980728138	14.13303678846731	Rana
751300	57.96090795548027	15.788369004988432	Kinda
768200	57.69772365910995	14.728552589948904	Nässjö
878200	59.72053445325757	14.17061466559239	Filipstad
718101	59.18443621186758	17.637954561146564	SCANIA
960721	68.41386755032848	17.517823065642688	Narvik
971211	57.07314090604886	60.73944438992499	missing transfe
971821	41.630028979091726	2.2555813335661083	Barcelona
828621	55.42810424676545	13.815657160190522	Ystad
844600	58.606413145148935	14.446186214187495	Karlsborg
841521	58.08605523949012	11.812425725720653	Stenungsund
